{
  "type": "FeatureCollection",
  "name": "av_export_temp.rtjpnmxb",
  "crs": {
    "type": "name",
    "properties": { "name": "urn:ogc:def:crs:OGC:1.3:CRS84" }
  },
  "features": [
    {
      "type": "Feature",
      "properties": {
        "navn": "Åvangen skole",
        "antall_elever": 168,
        "antall_ansatte": 45,
        "laveste_trinn": 1,
        "hoyeste_trinn": 7,
        "eierforhold": "Offentlig",
        "kommunenummer": "3002"
      },
      "geometry": {
        "type": "Point",
        "coordinates": [10.696659999784718, 59.45883000011559]
      }
    },
    {
      "type": "Feature",
      "properties": {
        "navn": "Åsveien skole og ressurssenter",
        "antall_elever": 600,
        "antall_ansatte": 155,
        "laveste_trinn": 1,
        "hoyeste_trinn": 10,
        "eierforhold": "Offentlig",
        "kommunenummer": "5001"
      },
      "geometry": {
        "type": "Point",
        "coordinates": [10.369130000880851, 63.415149999953123]
      }
    },
    {
      "type": "Feature",
      "properties": {
        "navn": "Åsvang skole",
        "antall_elever": 488,
        "antall_ansatte": 88,
        "laveste_trinn": 1,
        "hoyeste_trinn": 7,
        "eierforhold": "Offentlig",
        "kommunenummer": "5001"
      },
      "geometry": {
        "type": "Point",
        "coordinates": [10.452359999239118, 63.411379999597315]
      }
    },
    {
      "type": "Feature",
      "properties": {
        "navn": "Åstveit skole",
        "antall_elever": 456,
        "antall_ansatte": 100,
        "laveste_trinn": 8,
        "hoyeste_trinn": 10,
        "eierforhold": "Offentlig",
        "kommunenummer": "4601"
      },
      "geometry": {
        "type": "Point",
        "coordinates": [5.309420004451465, 60.455710018780238]
      }
    },
    {
      "type": "Feature",
      "properties": {
        "navn": "Åssiden skole",
        "antall_elever": 410,
        "antall_ansatte": 64,
        "laveste_trinn": 1,
        "hoyeste_trinn": 7,
        "eierforhold": "Offentlig",
        "kommunenummer": "3005"
      },
      "geometry": {
        "type": "Point",
        "coordinates": [10.144789999243377, 59.751489999677922]
      }
    },
    {
      "type": "Feature",
      "properties": {
        "navn": "Åsnes ungdomsskole",
        "antall_elever": 212,
        "antall_ansatte": 56,
        "laveste_trinn": 8,
        "hoyeste_trinn": 10,
        "eierforhold": "Offentlig",
        "kommunenummer": "3418"
      },
      "geometry": {
        "type": "Point",
        "coordinates": [12.020240000248156, 60.612369999773762]
      }
    },
    {
      "type": "Feature",
      "properties": {
        "navn": "Åsnes opplæringssenter",
        "antall_elever": 0,
        "antall_ansatte": 19,
        "laveste_trinn": 11,
        "hoyeste_trinn": 13,
        "eierforhold": "Offentlig",
        "kommunenummer": "3418"
      },
      "geometry": {
        "type": "Point",
        "coordinates": [12.050949999815929, 60.577410000436295]
      }
    },
    {
      "type": "Feature",
      "properties": {
        "navn": "Åsly skole",
        "antall_elever": 391,
        "antall_ansatte": 123,
        "laveste_trinn": 1,
        "hoyeste_trinn": 10,
        "eierforhold": "Offentlig",
        "kommunenummer": "5054"
      },
      "geometry": {
        "type": "Point",
        "coordinates": [9.961920000044582, 63.586830000174956]
      }
    },
    {
      "type": "Feature",
      "properties": {
        "navn": "Åskollen skole",
        "antall_elever": 465,
        "antall_ansatte": 73,
        "laveste_trinn": 1,
        "hoyeste_trinn": 7,
        "eierforhold": "Offentlig",
        "kommunenummer": "3005"
      },
      "geometry": {
        "type": "Point",
        "coordinates": [10.260300000584044, 59.712830000265612]
      }
    },
    {
      "type": "Feature",
      "properties": {
        "navn": "Åsheim ungdomsskole",
        "antall_elever": 430,
        "antall_ansatte": 69,
        "laveste_trinn": 8,
        "hoyeste_trinn": 10,
        "eierforhold": "Offentlig",
        "kommunenummer": "5001"
      },
      "geometry": {
        "type": "Point",
        "coordinates": [10.340180000209941, 63.349879999738114]
      }
    },
    {
      "type": "Feature",
      "properties": {
        "navn": "Åsheim barneskole",
        "antall_elever": 362,
        "antall_ansatte": 56,
        "laveste_trinn": 1,
        "hoyeste_trinn": 7,
        "eierforhold": "Offentlig",
        "kommunenummer": "5001"
      },
      "geometry": {
        "type": "Point",
        "coordinates": [10.343219999071282, 63.350799999741547]
      }
    },
    {
      "type": "Feature",
      "properties": {
        "navn": "Åsgården skole",
        "antall_elever": 221,
        "antall_ansatte": 35,
        "laveste_trinn": 1,
        "hoyeste_trinn": 7,
        "eierforhold": "Offentlig",
        "kommunenummer": "3801"
      },
      "geometry": {
        "type": "Point",
        "coordinates": [10.45507000058182, 59.34832000017046]
      }
    },
    {
      "type": "Feature",
      "properties": {
        "navn": "Åsgård skole",
        "antall_elever": 370,
        "antall_ansatte": 51,
        "laveste_trinn": 1,
        "hoyeste_trinn": 7,
        "eierforhold": "Offentlig",
        "kommunenummer": "3021"
      },
      "geometry": {
        "type": "Point",
        "coordinates": [10.796989999134276, 59.668150000332588]
      }
    },
    {
      "type": "Feature",
      "properties": {
        "navn": "Åset skole",
        "antall_elever": 268,
        "antall_ansatte": 83,
        "laveste_trinn": 1,
        "hoyeste_trinn": 10,
        "eierforhold": "Offentlig",
        "kommunenummer": "5058"
      },
      "geometry": {
        "type": "Point",
        "coordinates": [10.222779999642732, 63.963019999868436]
      }
    },
    {
      "type": "Feature",
      "properties": {
        "navn": "Åseral barne- og ungdomsskule",
        "antall_elever": 110,
        "antall_ansatte": 53,
        "laveste_trinn": 1,
        "hoyeste_trinn": 10,
        "eierforhold": "Offentlig",
        "kommunenummer": "4224"
      },
      "geometry": {
        "type": "Point",
        "coordinates": [7.421140000665082, 58.618910003454488]
      }
    },
    {
      "type": "Feature",
      "properties": {
        "navn": "Åsenhagen skole",
        "antall_elever": 505,
        "antall_ansatte": 98,
        "laveste_trinn": 1,
        "hoyeste_trinn": 7,
        "eierforhold": "Offentlig",
        "kommunenummer": "3030"
      },
      "geometry": {
        "type": "Point",
        "coordinates": [11.033789999630814, 60.009160000183016]
      }
    },
    {
      "type": "Feature",
      "properties": {
        "navn": "Åsen skole",
        "antall_elever": 54,
        "antall_ansatte": 15,
        "laveste_trinn": 1,
        "hoyeste_trinn": 7,
        "eierforhold": "Offentlig",
        "kommunenummer": "3411"
      },
      "geometry": {
        "type": "Point",
        "coordinates": [10.753889999711266, 61.026780000325765]
      }
    },
    {
      "type": "Feature",
      "properties": {
        "navn": "Åsen skole",
        "antall_elever": 337,
        "antall_ansatte": 76,
        "laveste_trinn": 1,
        "hoyeste_trinn": 7,
        "eierforhold": "Offentlig",
        "kommunenummer": "3029"
      },
      "geometry": {
        "type": "Point",
        "coordinates": [10.966250000121315, 59.923849999615769]
      }
    },
    {
      "type": "Feature",
      "properties": {
        "navn": "Åsen skole",
        "antall_elever": 188,
        "antall_ansatte": 29,
        "laveste_trinn": 1,
        "hoyeste_trinn": 7,
        "eierforhold": "Offentlig",
        "kommunenummer": "3005"
      },
      "geometry": {
        "type": "Point",
        "coordinates": [10.02103999916854, 59.732850000127286]
      }
    },
    {
      "type": "Feature",
      "properties": {
        "navn": "Åsen barne- og ungdomsskole",
        "antall_elever": 227,
        "antall_ansatte": 43,
        "laveste_trinn": 1,
        "hoyeste_trinn": 10,
        "eierforhold": "Offentlig",
        "kommunenummer": "5037"
      },
      "geometry": {
        "type": "Point",
        "coordinates": [11.051779999280857, 63.611840000152512]
      }
    },
    {
      "type": "Feature",
      "properties": {
        "navn": "Åse skole",
        "antall_elever": 314,
        "antall_ansatte": 57,
        "laveste_trinn": 1,
        "hoyeste_trinn": 7,
        "eierforhold": "Offentlig",
        "kommunenummer": "1507"
      },
      "geometry": {
        "type": "Point",
        "coordinates": [6.329380001950145, 62.463420004730025]
      }
    },
    {
      "type": "Feature",
      "properties": {
        "navn": "Åse montessoriskole",
        "antall_elever": 47,
        "antall_ansatte": 18,
        "laveste_trinn": 1,
        "hoyeste_trinn": 7,
        "eierforhold": "Privat",
        "kommunenummer": "1871"
      },
      "geometry": {
        "type": "Point",
        "coordinates": [15.807369998869238, 69.015780000082103]
      }
    },
    {
      "type": "Feature",
      "properties": {
        "navn": "Åsbygda skole",
        "antall_elever": 65,
        "antall_ansatte": 23,
        "laveste_trinn": 1,
        "hoyeste_trinn": 7,
        "eierforhold": "Offentlig",
        "kommunenummer": "3413"
      },
      "geometry": {
        "type": "Point",
        "coordinates": [11.366500000211381, 60.740199999903048]
      }
    },
    {
      "type": "Feature",
      "properties": {
        "navn": "Åsane skole",
        "antall_elever": 0,
        "antall_ansatte": 31,
        "laveste_trinn": 0,
        "hoyeste_trinn": 0,
        "eierforhold": "Offentlig",
        "kommunenummer": "4204"
      },
      "geometry": {
        "type": "Point",
        "coordinates": [7.947840000438736, 58.119700002752651]
      }
    },
    {
      "type": "Feature",
      "properties": {
        "navn": "Ås ungdomsskole",
        "antall_elever": 423,
        "antall_ansatte": 75,
        "laveste_trinn": 8,
        "hoyeste_trinn": 10,
        "eierforhold": "Offentlig",
        "kommunenummer": "3021"
      },
      "geometry": {
        "type": "Point",
        "coordinates": [10.800449999803808, 59.670390000259388]
      }
    },
    {
      "type": "Feature",
      "properties": {
        "navn": "Ås skole",
        "antall_elever": 321,
        "antall_ansatte": 58,
        "laveste_trinn": 1,
        "hoyeste_trinn": 7,
        "eierforhold": "Offentlig",
        "kommunenummer": "3035"
      },
      "geometry": {
        "type": "Point",
        "coordinates": [11.215880000774455, 60.329700000125627]
      }
    },
    {
      "type": "Feature",
      "properties": {
        "navn": "Årås skule",
        "antall_elever": 239,
        "antall_ansatte": 47,
        "laveste_trinn": 1,
        "hoyeste_trinn": 10,
        "eierforhold": "Offentlig",
        "kommunenummer": "4632"
      },
      "geometry": {
        "type": "Point",
        "coordinates": [4.935450006570704, 60.779840023795892]
      }
    },
    {
      "type": "Feature",
      "properties": {
        "navn": "Årølia skole",
        "antall_elever": 0,
        "antall_ansatte": 1,
        "laveste_trinn": 0,
        "hoyeste_trinn": 0,
        "eierforhold": "Offentlig",
        "kommunenummer": "1506"
      },
      "geometry": {
        "type": "Point",
        "coordinates": [7.291400000976028, 62.754340001744715]
      }
    },
    {
      "type": "Feature",
      "properties": {
        "navn": "Årvoll skole",
        "antall_elever": 722,
        "antall_ansatte": 161,
        "laveste_trinn": 1,
        "hoyeste_trinn": 10,
        "eierforhold": "Offentlig",
        "kommunenummer": "0301"
      },
      "geometry": {
        "type": "Point",
        "coordinates": [10.814190000048114, 59.944660000028541]
      }
    },
    {
      "type": "Feature",
      "properties": {
        "navn": "Årum skole",
        "antall_elever": 141,
        "antall_ansatte": 24,
        "laveste_trinn": 1,
        "hoyeste_trinn": 7,
        "eierforhold": "Offentlig",
        "kommunenummer": "3004"
      },
      "geometry": {
        "type": "Point",
        "coordinates": [11.09221000046178, 59.261700000429613]
      }
    },
    {
      "type": "Feature",
      "properties": {
        "navn": "Årnes skole",
        "antall_elever": 272,
        "antall_ansatte": 60,
        "laveste_trinn": 1,
        "hoyeste_trinn": 7,
        "eierforhold": "Offentlig",
        "kommunenummer": "3034"
      },
      "geometry": {
        "type": "Point",
        "coordinates": [11.476330000392556, 60.1295900003188]
      }
    },
    {
      "type": "Feature",
      "properties": {
        "navn": "Årnes skole",
        "antall_elever": 115,
        "antall_ansatte": 30,
        "laveste_trinn": 1,
        "hoyeste_trinn": 7,
        "eierforhold": "Offentlig",
        "kommunenummer": "4225"
      },
      "geometry": {
        "type": "Point",
        "coordinates": [7.049370000759264, 58.143970005577884]
      }
    },
    {
      "type": "Feature",
      "properties": {
        "navn": "Årlivoll skole",
        "antall_elever": 222,
        "antall_ansatte": 40,
        "laveste_trinn": 1,
        "hoyeste_trinn": 10,
        "eierforhold": "Offentlig",
        "kommunenummer": "5059"
      },
      "geometry": {
        "type": "Point",
        "coordinates": [9.744010000446846, 63.171729999994042]
      }
    },
    {
      "type": "Feature",
      "properties": {
        "navn": "Åretta ungdomsskole",
        "antall_elever": 398,
        "antall_ansatte": 68,
        "laveste_trinn": 8,
        "hoyeste_trinn": 10,
        "eierforhold": "Offentlig",
        "kommunenummer": "3405"
      },
      "geometry": {
        "type": "Point",
        "coordinates": [10.476740000456186, 61.101160000338851]
      }
    },
    {
      "type": "Feature",
      "properties": {
        "navn": "Åreppen skole",
        "antall_elever": 310,
        "antall_ansatte": 70,
        "laveste_trinn": 1,
        "hoyeste_trinn": 7,
        "eierforhold": "Offentlig",
        "kommunenummer": "3033"
      },
      "geometry": {
        "type": "Point",
        "coordinates": [11.133379999217361, 60.085990000415407]
      }
    },
    {
      "type": "Feature",
      "properties": {
        "navn": "Årdal skule",
        "antall_elever": 61,
        "antall_ansatte": 19,
        "laveste_trinn": 1,
        "hoyeste_trinn": 7,
        "eierforhold": "Offentlig",
        "kommunenummer": "1133"
      },
      "geometry": {
        "type": "Point",
        "coordinates": [6.192640001344069, 59.155920010933855]
      }
    },
    {
      "type": "Feature",
      "properties": {
        "navn": "Åndalsnes ungdomsskole",
        "antall_elever": 173,
        "antall_ansatte": 42,
        "laveste_trinn": 8,
        "hoyeste_trinn": 10,
        "eierforhold": "Offentlig",
        "kommunenummer": "1539"
      },
      "geometry": {
        "type": "Point",
        "coordinates": [7.684190000969645, 62.563630001119535]
      }
    },
    {
      "type": "Feature",
      "properties": {
        "navn": "Åndalsnes barneskole",
        "antall_elever": 224,
        "antall_ansatte": 56,
        "laveste_trinn": 1,
        "hoyeste_trinn": 7,
        "eierforhold": "Offentlig",
        "kommunenummer": "1539"
      },
      "geometry": {
        "type": "Point",
        "coordinates": [7.687420000354189, 62.563460001484451]
      }
    },
    {
      "type": "Feature",
      "properties": {
        "navn": "Åmås friskule",
        "antall_elever": 50,
        "antall_ansatte": 24,
        "laveste_trinn": 1,
        "hoyeste_trinn": 7,
        "eierforhold": "Privat",
        "kommunenummer": "1520"
      },
      "geometry": {
        "type": "Point",
        "coordinates": [6.206312124199005, 62.182508020315318]
      }
    },
    {
      "type": "Feature",
      "properties": {
        "navn": "Åmot ungdomsskole",
        "antall_elever": 136,
        "antall_ansatte": 40,
        "laveste_trinn": 8,
        "hoyeste_trinn": 10,
        "eierforhold": "Offentlig",
        "kommunenummer": "3422"
      },
      "geometry": {
        "type": "Point",
        "coordinates": [11.366809999123699, 61.140170000324417]
      }
    },
    {
      "type": "Feature",
      "properties": {
        "navn": "Åmot skule",
        "antall_elever": 151,
        "antall_ansatte": 48,
        "laveste_trinn": 1,
        "hoyeste_trinn": 10,
        "eierforhold": "Offentlig",
        "kommunenummer": "3825"
      },
      "geometry": {
        "type": "Point",
        "coordinates": [7.990629999873255, 59.572560001985806]
      }
    },
    {
      "type": "Feature",
      "properties": {
        "navn": "Åmot montessoriskole SA",
        "antall_elever": 30,
        "antall_ansatte": 21,
        "laveste_trinn": 1,
        "hoyeste_trinn": 7,
        "eierforhold": "Privat",
        "kommunenummer": "3422"
      },
      "geometry": {
        "type": "Point",
        "coordinates": [11.463010000455657, 61.301729999810362]
      }
    },
    {
      "type": "Feature",
      "properties": {
        "navn": "Åmot Barne og ungdomsskole",
        "antall_elever": 0,
        "antall_ansatte": 0,
        "laveste_trinn": 0,
        "hoyeste_trinn": 0,
        "eierforhold": "Offentlig",
        "kommunenummer": "3422"
      },
      "geometry": {
        "type": "Point",
        "coordinates": [11.366809999123699, 61.140170000324417]
      }
    },
    {
      "type": "Feature",
      "properties": {
        "navn": "Åmli skule",
        "antall_elever": 178,
        "antall_ansatte": 53,
        "laveste_trinn": 1,
        "hoyeste_trinn": 10,
        "eierforhold": "Offentlig",
        "kommunenummer": "4217"
      },
      "geometry": {
        "type": "Point",
        "coordinates": [8.496990000449545, 58.77133000094549]
      }
    },
    {
      "type": "Feature",
      "properties": {
        "navn": "Ålvundfjord skule",
        "antall_elever": 83,
        "antall_ansatte": 20,
        "laveste_trinn": 1,
        "hoyeste_trinn": 7,
        "eierforhold": "Offentlig",
        "kommunenummer": "1563"
      },
      "geometry": {
        "type": "Point",
        "coordinates": [8.518620000646187, 62.840900000513166]
      }
    },
    {
      "type": "Feature",
      "properties": {
        "navn": "Ålvik skule",
        "antall_elever": 44,
        "antall_ansatte": 15,
        "laveste_trinn": 1,
        "hoyeste_trinn": 7,
        "eierforhold": "Offentlig",
        "kommunenummer": "4622"
      },
      "geometry": {
        "type": "Point",
        "coordinates": [6.435990002394322, 60.433350006997436]
      }
    },
    {
      "type": "Feature",
      "properties": {
        "navn": "Ålgård skole",
        "antall_elever": 372,
        "antall_ansatte": 75,
        "laveste_trinn": 1,
        "hoyeste_trinn": 7,
        "eierforhold": "Offentlig",
        "kommunenummer": "1122"
      },
      "geometry": {
        "type": "Point",
        "coordinates": [5.858010000809263, 58.764630016583659]
      }
    },
    {
      "type": "Feature",
      "properties": {
        "navn": "Ålfoten oppvekstsenter",
        "antall_elever": 18,
        "antall_ansatte": 6,
        "laveste_trinn": 1,
        "hoyeste_trinn": 7,
        "eierforhold": "Offentlig",
        "kommunenummer": "4648"
      },
      "geometry": {
        "type": "Point",
        "coordinates": [5.667589549314134, 61.830298321316967]
      }
    },
    {
      "type": "Feature",
      "properties": {
        "navn": "Ål ungdomsskule",
        "antall_elever": 187,
        "antall_ansatte": 50,
        "laveste_trinn": 8,
        "hoyeste_trinn": 10,
        "eierforhold": "Offentlig",
        "kommunenummer": "3043"
      },
      "geometry": {
        "type": "Point",
        "coordinates": [8.550039999477878, 60.627750000278887]
      }
    },
    {
      "type": "Feature",
      "properties": {
        "navn": "Åkra ungdomsskole",
        "antall_elever": 347,
        "antall_ansatte": 56,
        "laveste_trinn": 8,
        "hoyeste_trinn": 10,
        "eierforhold": "Offentlig",
        "kommunenummer": "1149"
      },
      "geometry": {
        "type": "Point",
        "coordinates": [5.195980004283609, 59.255520025704975]
      }
    },
    {
      "type": "Feature",
      "properties": {
        "navn": "Åkra skule",
        "antall_elever": 6,
        "antall_ansatte": 7,
        "laveste_trinn": 1,
        "hoyeste_trinn": 7,
        "eierforhold": "Offentlig",
        "kommunenummer": "4617"
      },
      "geometry": {
        "type": "Point",
        "coordinates": [6.095710001818594, 59.790500010591067]
      }
    },
    {
      "type": "Feature",
      "properties": {
        "navn": "Åkra skole",
        "antall_elever": 178,
        "antall_ansatte": 39,
        "laveste_trinn": 1,
        "hoyeste_trinn": 7,
        "eierforhold": "Offentlig",
        "kommunenummer": "1149"
      },
      "geometry": {
        "type": "Point",
        "coordinates": [5.190490003302237, 59.259910026140311]
      }
    },
    {
      "type": "Feature",
      "properties": {
        "navn": "Åheim skule",
        "antall_elever": 75,
        "antall_ansatte": 29,
        "laveste_trinn": 1,
        "hoyeste_trinn": 10,
        "eierforhold": "Offentlig",
        "kommunenummer": "1511"
      },
      "geometry": {
        "type": "Point",
        "coordinates": [5.533120004669334, 62.035780010055539]
      }
    },
    {
      "type": "Feature",
      "properties": {
        "navn": "Ågotnes skule",
        "antall_elever": 313,
        "antall_ansatte": 60,
        "laveste_trinn": 1,
        "hoyeste_trinn": 7,
        "eierforhold": "Offentlig",
        "kommunenummer": "4626"
      },
      "geometry": {
        "type": "Point",
        "coordinates": [4.995630006099709, 60.406830023936799]
      }
    },
    {
      "type": "Feature",
      "properties": {
        "navn": "Åfoss skole",
        "antall_elever": 275,
        "antall_ansatte": 55,
        "laveste_trinn": 1,
        "hoyeste_trinn": 7,
        "eierforhold": "Offentlig",
        "kommunenummer": "3807"
      },
      "geometry": {
        "type": "Point",
        "coordinates": [9.543720000660393, 59.198039999964699]
      }
    },
    {
      "type": "Feature",
      "properties": {
        "navn": "Åfjord kommune voksenopplæring",
        "antall_elever": 0,
        "antall_ansatte": 14,
        "laveste_trinn": 0,
        "hoyeste_trinn": 0,
        "eierforhold": "Offentlig",
        "kommunenummer": "5058"
      },
      "geometry": {
        "type": "Point",
        "coordinates": [10.223450000135037, 63.961130000218844]
      }
    },
    {
      "type": "Feature",
      "properties": {
        "navn": "Ådnamarka skule",
        "antall_elever": 303,
        "antall_ansatte": 77,
        "laveste_trinn": 1,
        "hoyeste_trinn": 7,
        "eierforhold": "Offentlig",
        "kommunenummer": "4601"
      },
      "geometry": {
        "type": "Point",
        "coordinates": [5.475760003764678, 60.411450016259479]
      }
    },
    {
      "type": "Feature",
      "properties": {
        "navn": "Ådland skole",
        "antall_elever": 113,
        "antall_ansatte": 27,
        "laveste_trinn": 1,
        "hoyeste_trinn": 7,
        "eierforhold": "Offentlig",
        "kommunenummer": "1149"
      },
      "geometry": {
        "type": "Point",
        "coordinates": [5.20224000354828, 59.242690026422729]
      }
    },
    {
      "type": "Feature",
      "properties": {
        "navn": "Ådalsbruk skole",
        "antall_elever": 109,
        "antall_ansatte": 39,
        "laveste_trinn": 1,
        "hoyeste_trinn": 7,
        "eierforhold": "Offentlig",
        "kommunenummer": "3412"
      },
      "geometry": {
        "type": "Point",
        "coordinates": [11.329310000858888, 60.788280000332904]
      }
    },
    {
      "type": "Feature",
      "properties": {
        "navn": "Åarjel-Saemiej Skuvle",
        "antall_elever": 12,
        "antall_ansatte": 23,
        "laveste_trinn": 1,
        "hoyeste_trinn": 7,
        "eierforhold": "Offentlig",
        "kommunenummer": "5041"
      },
      "geometry": {
        "type": "Point",
        "coordinates": [12.359699998998188, 64.248570000289703]
      }
    },
    {
      "type": "Feature",
      "properties": {
        "navn": "Å barneskole",
        "antall_elever": 259,
        "antall_ansatte": 62,
        "laveste_trinn": 1,
        "hoyeste_trinn": 7,
        "eierforhold": "Offentlig",
        "kommunenummer": "4225"
      },
      "geometry": {
        "type": "Point",
        "coordinates": [7.096159999554491, 58.159100005385582]
      }
    },
    {
      "type": "Feature",
      "properties": {
        "navn": "Øystre Slidre ungdomsskule",
        "antall_elever": 96,
        "antall_ansatte": 28,
        "laveste_trinn": 8,
        "hoyeste_trinn": 10,
        "eierforhold": "Offentlig",
        "kommunenummer": "3453"
      },
      "geometry": {
        "type": "Point",
        "coordinates": [9.082639999350929, 61.132410000593147]
      }
    },
    {
      "type": "Feature",
      "properties": {
        "navn": "Øystese skule",
        "antall_elever": 250,
        "antall_ansatte": 53,
        "laveste_trinn": 1,
        "hoyeste_trinn": 7,
        "eierforhold": "Offentlig",
        "kommunenummer": "4622"
      },
      "geometry": {
        "type": "Point",
        "coordinates": [6.198870002692853, 60.388170008576303]
      }
    },
    {
      "type": "Feature",
      "properties": {
        "navn": "Øyslebø skole",
        "antall_elever": 185,
        "antall_ansatte": 58,
        "laveste_trinn": 1,
        "hoyeste_trinn": 10,
        "eierforhold": "Offentlig",
        "kommunenummer": "4205"
      },
      "geometry": {
        "type": "Point",
        "coordinates": [7.554820000821406, 58.171760003317708]
      }
    },
    {
      "type": "Feature",
      "properties": {
        "navn": "Øyriket oppvekstsenter",
        "antall_elever": 53,
        "antall_ansatte": 19,
        "laveste_trinn": 1,
        "hoyeste_trinn": 10,
        "eierforhold": "Offentlig",
        "kommunenummer": "5402"
      },
      "geometry": {
        "type": "Point",
        "coordinates": [16.568443201232071, 68.87607930041888]
      }
    },
    {
      "type": "Feature",
      "properties": {
        "navn": "Øyra skule",
        "antall_elever": 354,
        "antall_ansatte": 109,
        "laveste_trinn": 1,
        "hoyeste_trinn": 7,
        "eierforhold": "Offentlig",
        "kommunenummer": "1577"
      },
      "geometry": {
        "type": "Point",
        "coordinates": [6.079070002750455, 62.14830000637285]
      }
    },
    {
      "type": "Feature",
      "properties": {
        "navn": "Øygarden ungdomsskule",
        "antall_elever": 193,
        "antall_ansatte": 42,
        "laveste_trinn": 8,
        "hoyeste_trinn": 10,
        "eierforhold": "Offentlig",
        "kommunenummer": "4626"
      },
      "geometry": {
        "type": "Point",
        "coordinates": [4.907680005772636, 60.51627002535654]
      }
    },
    {
      "type": "Feature",
      "properties": {
        "navn": "Øygard ungdomsskole",
        "antall_elever": 398,
        "antall_ansatte": 61,
        "laveste_trinn": 8,
        "hoyeste_trinn": 10,
        "eierforhold": "Offentlig",
        "kommunenummer": "1108"
      },
      "geometry": {
        "type": "Point",
        "coordinates": [5.765000002541004, 58.8533100174716]
      }
    },
    {
      "type": "Feature",
      "properties": {
        "navn": "Øyer ungdomsskole",
        "antall_elever": 171,
        "antall_ansatte": 50,
        "laveste_trinn": 8,
        "hoyeste_trinn": 10,
        "eierforhold": "Offentlig",
        "kommunenummer": "3440"
      },
      "geometry": {
        "type": "Point",
        "coordinates": [10.443829999395327, 61.235180000364267]
      }
    },
    {
      "type": "Feature",
      "properties": {
        "navn": "Øyatun skule",
        "antall_elever": 75,
        "antall_ansatte": 26,
        "laveste_trinn": 8,
        "hoyeste_trinn": 10,
        "eierforhold": "Offentlig",
        "kommunenummer": "4617"
      },
      "geometry": {
        "type": "Point",
        "coordinates": [5.704430003594174, 59.79325001520801]
      }
    },
    {
      "type": "Feature",
      "properties": {
        "navn": "Øya videregående skole",
        "antall_elever": 61,
        "antall_ansatte": 179,
        "laveste_trinn": 8,
        "hoyeste_trinn": 13,
        "eierforhold": "Privat",
        "kommunenummer": "5028"
      },
      "geometry": {
        "type": "Point",
        "coordinates": [10.275360000922561, 63.236810000182302]
      }
    },
    {
      "type": "Feature",
      "properties": {
        "navn": "Øvrebygda skule",
        "antall_elever": 51,
        "antall_ansatte": 15,
        "laveste_trinn": 1,
        "hoyeste_trinn": 7,
        "eierforhold": "Offentlig",
        "kommunenummer": "4615"
      },
      "geometry": {
        "type": "Point",
        "coordinates": [5.333030003303911, 59.866830020409175]
      }
    },
    {
      "type": "Feature",
      "properties": {
        "navn": "Øvre Bardu skole",
        "antall_elever": 45,
        "antall_ansatte": 15,
        "laveste_trinn": 1,
        "hoyeste_trinn": 7,
        "eierforhold": "Offentlig",
        "kommunenummer": "5416"
      },
      "geometry": {
        "type": "Point",
        "coordinates": [18.584089221221021, 68.75329472156767]
      }
    },
    {
      "type": "Feature",
      "properties": {
        "navn": "Øvre Alta skole",
        "antall_elever": 111,
        "antall_ansatte": 29,
        "laveste_trinn": 1,
        "hoyeste_trinn": 7,
        "eierforhold": "Offentlig",
        "kommunenummer": "5403"
      },
      "geometry": {
        "type": "Point",
        "coordinates": [23.265709996672136, 69.927639998651955]
      }
    },
    {
      "type": "Feature",
      "properties": {
        "navn": "Øvergård montessoriskole",
        "antall_elever": 44,
        "antall_ansatte": 15,
        "laveste_trinn": 1,
        "hoyeste_trinn": 10,
        "eierforhold": "Privat",
        "kommunenummer": "5418"
      },
      "geometry": {
        "type": "Point",
        "coordinates": [19.447549999510148, 69.021220000222669]
      }
    },
    {
      "type": "Feature",
      "properties": {
        "navn": "Østvang skole",
        "antall_elever": 283,
        "antall_ansatte": 87,
        "laveste_trinn": 1,
        "hoyeste_trinn": 7,
        "eierforhold": "Offentlig",
        "kommunenummer": "3412"
      },
      "geometry": {
        "type": "Point",
        "coordinates": [11.35231999997108, 60.823129999610707]
      }
    },
    {
      "type": "Feature",
      "properties": {
        "navn": "Østre Halsen skole",
        "antall_elever": 389,
        "antall_ansatte": 71,
        "laveste_trinn": 1,
        "hoyeste_trinn": 7,
        "eierforhold": "Offentlig",
        "kommunenummer": "3805"
      },
      "geometry": {
        "type": "Point",
        "coordinates": [10.065169999585644, 59.036660000041962]
      }
    },
    {
      "type": "Feature",
      "properties": {
        "navn": "Østmarka skole",
        "antall_elever": 81,
        "antall_ansatte": 33,
        "laveste_trinn": 1,
        "hoyeste_trinn": 10,
        "eierforhold": "Privat",
        "kommunenummer": "0301"
      },
      "geometry": {
        "type": "Point",
        "coordinates": [10.852749999797323, 59.890370000188064]
      }
    },
    {
      "type": "Feature",
      "properties": {
        "navn": "Østli skole",
        "antall_elever": 366,
        "antall_ansatte": 59,
        "laveste_trinn": 1,
        "hoyeste_trinn": 7,
        "eierforhold": "Offentlig",
        "kommunenummer": "3020"
      },
      "geometry": {
        "type": "Point",
        "coordinates": [10.806500000579588, 59.782040000186861]
      }
    },
    {
      "type": "Feature",
      "properties": {
        "navn": "Østgård skole",
        "antall_elever": 94,
        "antall_ansatte": 23,
        "laveste_trinn": 1,
        "hoyeste_trinn": 7,
        "eierforhold": "Offentlig",
        "kommunenummer": "3034"
      },
      "geometry": {
        "type": "Point",
        "coordinates": [11.531270000156907, 60.119300000186065]
      }
    },
    {
      "type": "Feature",
      "properties": {
        "navn": "Østerås skole",
        "antall_elever": 403,
        "antall_ansatte": 51,
        "laveste_trinn": 8,
        "hoyeste_trinn": 10,
        "eierforhold": "Offentlig",
        "kommunenummer": "3024"
      },
      "geometry": {
        "type": "Point",
        "coordinates": [10.607609999499672, 59.93913000004811]
      }
    },
    {
      "type": "Feature",
      "properties": {
        "navn": "Østersund ungdomsskole",
        "antall_elever": 493,
        "antall_ansatte": 76,
        "laveste_trinn": 8,
        "hoyeste_trinn": 10,
        "eierforhold": "Offentlig",
        "kommunenummer": "3030"
      },
      "geometry": {
        "type": "Point",
        "coordinates": [11.167539999422946, 59.921039999566851]
      }
    },
    {
      "type": "Feature",
      "properties": {
        "navn": "Østensjø skole",
        "antall_elever": 528,
        "antall_ansatte": 106,
        "laveste_trinn": 1,
        "hoyeste_trinn": 7,
        "eierforhold": "Offentlig",
        "kommunenummer": "0301"
      },
      "geometry": {
        "type": "Point",
        "coordinates": [10.830709999956397, 59.899760000097686]
      }
    },
    {
      "type": "Feature",
      "properties": {
        "navn": "Østbyen skole",
        "antall_elever": 276,
        "antall_ansatte": 42,
        "laveste_trinn": 1,
        "hoyeste_trinn": 7,
        "eierforhold": "Offentlig",
        "kommunenummer": "1804"
      },
      "geometry": {
        "type": "Point",
        "coordinates": [14.409179999470208, 67.280279999999081]
      }
    },
    {
      "type": "Feature",
      "properties": {
        "navn": "Ørsta ungdomsskule",
        "antall_elever": 360,
        "antall_ansatte": 81,
        "laveste_trinn": 8,
        "hoyeste_trinn": 10,
        "eierforhold": "Offentlig",
        "kommunenummer": "1520"
      },
      "geometry": {
        "type": "Point",
        "coordinates": [6.133830002664193, 62.196280006002873]
      }
    },
    {
      "type": "Feature",
      "properties": {
        "navn": "Ørsnes privatskole",
        "antall_elever": 47,
        "antall_ansatte": 1,
        "laveste_trinn": 1,
        "hoyeste_trinn": 10,
        "eierforhold": "Privat",
        "kommunenummer": "1865"
      },
      "geometry": {
        "type": "Point",
        "coordinates": [14.395230000079088, 68.200639999848121]
      }
    },
    {
      "type": "Feature",
      "properties": {
        "navn": "Ørskog skule",
        "antall_elever": 265,
        "antall_ansatte": 56,
        "laveste_trinn": 1,
        "hoyeste_trinn": 10,
        "eierforhold": "Offentlig",
        "kommunenummer": "1507"
      },
      "geometry": {
        "type": "Point",
        "coordinates": [6.820070001005772, 62.477630002934873]
      }
    },
    {
      "type": "Feature",
      "properties": {
        "navn": "Ørnes skole",
        "antall_elever": 106,
        "antall_ansatte": 38,
        "laveste_trinn": 8,
        "hoyeste_trinn": 10,
        "eierforhold": "Offentlig",
        "kommunenummer": "1837"
      },
      "geometry": {
        "type": "Point",
        "coordinates": [13.724220000050728, 66.864679999817355]
      }
    },
    {
      "type": "Feature",
      "properties": {
        "navn": "Ørmelen skole",
        "antall_elever": 277,
        "antall_ansatte": 64,
        "laveste_trinn": 1,
        "hoyeste_trinn": 7,
        "eierforhold": "Offentlig",
        "kommunenummer": "5038"
      },
      "geometry": {
        "type": "Point",
        "coordinates": [11.469599999512207, 63.79189999976979]
      }
    },
    {
      "type": "Feature",
      "properties": {
        "navn": "Ørland ungdomsskole",
        "antall_elever": 186,
        "antall_ansatte": 34,
        "laveste_trinn": 8,
        "hoyeste_trinn": 10,
        "eierforhold": "Offentlig",
        "kommunenummer": "5057"
      },
      "geometry": {
        "type": "Point",
        "coordinates": [9.656109999052036, 63.687820000114272]
      }
    },
    {
      "type": "Feature",
      "properties": {
        "navn": "Øreåsen skole",
        "antall_elever": 330,
        "antall_ansatte": 69,
        "laveste_trinn": 1,
        "hoyeste_trinn": 7,
        "eierforhold": "Offentlig",
        "kommunenummer": "3002"
      },
      "geometry": {
        "type": "Point",
        "coordinates": [10.68979999939722, 59.419699999650128]
      }
    },
    {
      "type": "Feature",
      "properties": {
        "navn": "Øresvik skole",
        "antall_elever": 15,
        "antall_ansatte": 8,
        "laveste_trinn": 1,
        "hoyeste_trinn": 10,
        "eierforhold": "Offentlig",
        "kommunenummer": "1836"
      },
      "geometry": {
        "type": "Point",
        "coordinates": [13.224670000738836, 66.462320000032307]
      }
    },
    {
      "type": "Feature",
      "properties": {
        "navn": "Øren skole",
        "antall_elever": 478,
        "antall_ansatte": 69,
        "laveste_trinn": 1,
        "hoyeste_trinn": 7,
        "eierforhold": "Offentlig",
        "kommunenummer": "3005"
      },
      "geometry": {
        "type": "Point",
        "coordinates": [10.170459999149326, 59.752190000285751]
      }
    },
    {
      "type": "Feature",
      "properties": {
        "navn": "Ølve montessoriskule SA",
        "antall_elever": 22,
        "antall_ansatte": 11,
        "laveste_trinn": 1,
        "hoyeste_trinn": 7,
        "eierforhold": "Privat",
        "kommunenummer": "4617"
      },
      "geometry": {
        "type": "Point",
        "coordinates": [5.814520002924208, 60.012630013268577]
      }
    },
    {
      "type": "Feature",
      "properties": {
        "navn": "Ølen skule",
        "antall_elever": 268,
        "antall_ansatte": 61,
        "laveste_trinn": 1,
        "hoyeste_trinn": 10,
        "eierforhold": "Offentlig",
        "kommunenummer": "1160"
      },
      "geometry": {
        "type": "Point",
        "coordinates": [5.814960001775055, 59.605210014418773]
      }
    },
    {
      "type": "Feature",
      "properties": {
        "navn": "Ytterøy barne- og ungdomsskole",
        "antall_elever": 59,
        "antall_ansatte": 12,
        "laveste_trinn": 1,
        "hoyeste_trinn": 10,
        "eierforhold": "Offentlig",
        "kommunenummer": "5037"
      },
      "geometry": {
        "type": "Point",
        "coordinates": [11.048109999849808, 63.770329999851235]
      }
    },
    {
      "type": "Feature",
      "properties": {
        "navn": "Ytteren skole",
        "antall_elever": 235,
        "antall_ansatte": 43,
        "laveste_trinn": 1,
        "hoyeste_trinn": 7,
        "eierforhold": "Offentlig",
        "kommunenummer": "1833"
      },
      "geometry": {
        "type": "Point",
        "coordinates": [14.125280001089994, 66.347899999598695]
      }
    },
    {
      "type": "Feature",
      "properties": {
        "navn": "Ytrebygda skole",
        "antall_elever": 363,
        "antall_ansatte": 71,
        "laveste_trinn": 8,
        "hoyeste_trinn": 10,
        "eierforhold": "Offentlig",
        "kommunenummer": "4601"
      },
      "geometry": {
        "type": "Point",
        "coordinates": [5.2702100052879, 60.286860020257159]
      }
    },
    {
      "type": "Feature",
      "properties": {
        "navn": "Ytre Herøy ungdomsskule",
        "antall_elever": 222,
        "antall_ansatte": 57,
        "laveste_trinn": 8,
        "hoyeste_trinn": 10,
        "eierforhold": "Offentlig",
        "kommunenummer": "1515"
      },
      "geometry": {
        "type": "Point",
        "coordinates": [5.647340004175903, 62.333600008884858]
      }
    },
    {
      "type": "Feature",
      "properties": {
        "navn": "Ytre Enebakk skole",
        "antall_elever": 505,
        "antall_ansatte": 91,
        "laveste_trinn": 1,
        "hoyeste_trinn": 7,
        "eierforhold": "Offentlig",
        "kommunenummer": "3028"
      },
      "geometry": {
        "type": "Point",
        "coordinates": [11.05671999932945, 59.721360000241219]
      }
    },
    {
      "type": "Feature",
      "properties": {
        "navn": "Ytre Arna skule",
        "antall_elever": 214,
        "antall_ansatte": 66,
        "laveste_trinn": 1,
        "hoyeste_trinn": 7,
        "eierforhold": "Offentlig",
        "kommunenummer": "4601"
      },
      "geometry": {
        "type": "Point",
        "coordinates": [5.431780003716454, 60.462080016890447]
      }
    },
    {
      "type": "Feature",
      "properties": {
        "navn": "Workinnmarka skole",
        "antall_elever": 219,
        "antall_ansatte": 31,
        "laveste_trinn": 1,
        "hoyeste_trinn": 7,
        "eierforhold": "Offentlig",
        "kommunenummer": "5401"
      },
      "geometry": {
        "type": "Point",
        "coordinates": [18.934330001218804, 69.667259999759892]
      }
    },
    {
      "type": "Feature",
      "properties": {
        "navn": "Wilds Minne skole",
        "antall_elever": 361,
        "antall_ansatte": 86,
        "laveste_trinn": 1,
        "hoyeste_trinn": 7,
        "eierforhold": "Offentlig",
        "kommunenummer": "4204"
      },
      "geometry": {
        "type": "Point",
        "coordinates": [8.02462999936153, 58.149910001746683]
      }
    },
    {
      "type": "Feature",
      "properties": {
        "navn": "Wennersborg skole",
        "antall_elever": 208,
        "antall_ansatte": 44,
        "laveste_trinn": 1,
        "hoyeste_trinn": 7,
        "eierforhold": "Offentlig",
        "kommunenummer": "3006"
      },
      "geometry": {
        "type": "Point",
        "coordinates": [9.6399100008937, 59.653420000045877]
      }
    },
    {
      "type": "Feature",
      "properties": {
        "navn": "Wang Ung Stavanger AS",
        "antall_elever": 180,
        "antall_ansatte": 46,
        "laveste_trinn": 8,
        "hoyeste_trinn": 10,
        "eierforhold": "Privat",
        "kommunenummer": "1103"
      },
      "geometry": {
        "type": "Point",
        "coordinates": [5.700060001783267, 58.954600018403319]
      }
    },
    {
      "type": "Feature",
      "properties": {
        "navn": "Wang Ung Sandnes AS",
        "antall_elever": 177,
        "antall_ansatte": 43,
        "laveste_trinn": 8,
        "hoyeste_trinn": 10,
        "eierforhold": "Privat",
        "kommunenummer": "1108"
      },
      "geometry": {
        "type": "Point",
        "coordinates": [5.722970002500849, 58.859920018236977]
      }
    },
    {
      "type": "Feature",
      "properties": {
        "navn": "Wang Ung Sandefjord AS",
        "antall_elever": 180,
        "antall_ansatte": 37,
        "laveste_trinn": 8,
        "hoyeste_trinn": 10,
        "eierforhold": "Privat",
        "kommunenummer": "3804"
      },
      "geometry": {
        "type": "Point",
        "coordinates": [10.184800000005179, 59.148599999722705]
      }
    },
    {
      "type": "Feature",
      "properties": {
        "navn": "Wang Ung Oslo AS",
        "antall_elever": 372,
        "antall_ansatte": 72,
        "laveste_trinn": 8,
        "hoyeste_trinn": 13,
        "eierforhold": "Privat",
        "kommunenummer": "0301"
      },
      "geometry": {
        "type": "Point",
        "coordinates": [10.793180000494422, 59.926820000314919]
      }
    },
    {
      "type": "Feature",
      "properties": {
        "navn": "Wang Tønsberg AS",
        "antall_elever": 186,
        "antall_ansatte": 84,
        "laveste_trinn": 8,
        "hoyeste_trinn": 13,
        "eierforhold": "Privat",
        "kommunenummer": "3803"
      },
      "geometry": {
        "type": "Point",
        "coordinates": [10.415729999163482, 59.295020000376226]
      }
    },
    {
      "type": "Feature",
      "properties": {
        "navn": "Wang Romerike AS",
        "antall_elever": 129,
        "antall_ansatte": 101,
        "laveste_trinn": 8,
        "hoyeste_trinn": 13,
        "eierforhold": "Privat",
        "kommunenummer": "3029"
      },
      "geometry": {
        "type": "Point",
        "coordinates": [10.951990000066177, 59.946739999585255]
      }
    },
    {
      "type": "Feature",
      "properties": {
        "navn": "Wang Hamar AS",
        "antall_elever": 92,
        "antall_ansatte": 78,
        "laveste_trinn": 8,
        "hoyeste_trinn": 13,
        "eierforhold": "Privat",
        "kommunenummer": "3403"
      },
      "geometry": {
        "type": "Point",
        "coordinates": [11.038109999556292, 60.801670000143488]
      }
    },
    {
      "type": "Feature",
      "properties": {
        "navn": "Wang Fredrikstad AS",
        "antall_elever": 150,
        "antall_ansatte": 80,
        "laveste_trinn": 8,
        "hoyeste_trinn": 13,
        "eierforhold": "Privat",
        "kommunenummer": "3004"
      },
      "geometry": {
        "type": "Point",
        "coordinates": [10.928959999881114, 59.212560000070724]
      }
    },
    {
      "type": "Feature",
      "properties": {
        "navn": "Vårtun Kristne oppvekstsenter SA",
        "antall_elever": 129,
        "antall_ansatte": 60,
        "laveste_trinn": 1,
        "hoyeste_trinn": 10,
        "eierforhold": "Privat",
        "kommunenummer": "5037"
      },
      "geometry": {
        "type": "Point",
        "coordinates": [11.251540000325798, 63.74062000005641]
      }
    },
    {
      "type": "Feature",
      "properties": {
        "navn": "Vålerenga skole",
        "antall_elever": 521,
        "antall_ansatte": 101,
        "laveste_trinn": 1,
        "hoyeste_trinn": 7,
        "eierforhold": "Offentlig",
        "kommunenummer": "0301"
      },
      "geometry": {
        "type": "Point",
        "coordinates": [10.78982000066911, 59.907010000263043]
      }
    },
    {
      "type": "Feature",
      "properties": {
        "navn": "Våler ungdomsskole",
        "antall_elever": 212,
        "antall_ansatte": 53,
        "laveste_trinn": 8,
        "hoyeste_trinn": 10,
        "eierforhold": "Offentlig",
        "kommunenummer": "3018"
      },
      "geometry": {
        "type": "Point",
        "coordinates": [10.865497632519418, 59.488500507070796]
      }
    },
    {
      "type": "Feature",
      "properties": {
        "navn": "Våler barne- og ungdomsskole",
        "antall_elever": 313,
        "antall_ansatte": 74,
        "laveste_trinn": 1,
        "hoyeste_trinn": 10,
        "eierforhold": "Offentlig",
        "kommunenummer": "3419"
      },
      "geometry": {
        "type": "Point",
        "coordinates": [11.830059999294702, 60.673769999800328]
      }
    },
    {
      "type": "Feature",
      "properties": {
        "navn": "Våland skole",
        "antall_elever": 553,
        "antall_ansatte": 95,
        "laveste_trinn": 1,
        "hoyeste_trinn": 7,
        "eierforhold": "Offentlig",
        "kommunenummer": "1103"
      },
      "geometry": {
        "type": "Point",
        "coordinates": [5.73271000105905, 58.96224001743294]
      }
    },
    {
      "type": "Feature",
      "properties": {
        "navn": "Våk skole",
        "antall_elever": 242,
        "antall_ansatte": 50,
        "laveste_trinn": 1,
        "hoyeste_trinn": 7,
        "eierforhold": "Offentlig",
        "kommunenummer": "3018"
      },
      "geometry": {
        "type": "Point",
        "coordinates": [10.799320000770688, 59.461370000324735]
      }
    },
    {
      "type": "Feature",
      "properties": {
        "navn": "Vågåmo skule",
        "antall_elever": 221,
        "antall_ansatte": 56,
        "laveste_trinn": 1,
        "hoyeste_trinn": 7,
        "eierforhold": "Offentlig",
        "kommunenummer": "3435"
      },
      "geometry": {
        "type": "Point",
        "coordinates": [9.097820000518062, 61.872150000040939]
      }
    },
    {
      "type": "Feature",
      "properties": {
        "navn": "Vågå ungdomsskule",
        "antall_elever": 122,
        "antall_ansatte": 32,
        "laveste_trinn": 8,
        "hoyeste_trinn": 10,
        "eierforhold": "Offentlig",
        "kommunenummer": "3435"
      },
      "geometry": {
        "type": "Point",
        "coordinates": [9.098860000087742, 61.871850000478524]
      }
    },
    {
      "type": "Feature",
      "properties": {
        "navn": "Vågsøy ungdomsskule",
        "antall_elever": 215,
        "antall_ansatte": 46,
        "laveste_trinn": 8,
        "hoyeste_trinn": 10,
        "eierforhold": "Offentlig",
        "kommunenummer": "4602"
      },
      "geometry": {
        "type": "Point",
        "coordinates": [5.117670006857142, 61.94144001476608]
      }
    },
    {
      "type": "Feature",
      "properties": {
        "navn": "Vågsetra barne- og ungdomsskole",
        "antall_elever": 283,
        "antall_ansatte": 63,
        "laveste_trinn": 1,
        "hoyeste_trinn": 10,
        "eierforhold": "Offentlig",
        "kommunenummer": "1506"
      },
      "geometry": {
        "type": "Point",
        "coordinates": [7.426780001560249, 62.714100001052593]
      }
    },
    {
      "type": "Feature",
      "properties": {
        "navn": "Vågsbygd skole",
        "antall_elever": 498,
        "antall_ansatte": 48,
        "laveste_trinn": 1,
        "hoyeste_trinn": 7,
        "eierforhold": "Offentlig",
        "kommunenummer": "4204"
      },
      "geometry": {
        "type": "Point",
        "coordinates": [7.957019999431233, 58.123920002656071]
      }
    },
    {
      "type": "Feature",
      "properties": {
        "navn": "Vågen skule",
        "antall_elever": 97,
        "antall_ansatte": 26,
        "laveste_trinn": 1,
        "hoyeste_trinn": 7,
        "eierforhold": "Offentlig",
        "kommunenummer": "1160"
      },
      "geometry": {
        "type": "Point",
        "coordinates": [5.747780003045294, 59.596250015158667]
      }
    },
    {
      "type": "Feature",
      "properties": {
        "navn": "Vågen læringssenter",
        "antall_elever": 10,
        "antall_ansatte": 18,
        "laveste_trinn": 8,
        "hoyeste_trinn": 10,
        "eierforhold": "Offentlig",
        "kommunenummer": "1149"
      },
      "geometry": {
        "type": "Point",
        "coordinates": [5.287770002730327, 59.279260024483619]
      }
    },
    {
      "type": "Feature",
      "properties": {
        "navn": "Våge skule",
        "antall_elever": 46,
        "antall_ansatte": 24,
        "laveste_trinn": 1,
        "hoyeste_trinn": 10,
        "eierforhold": "Offentlig",
        "kommunenummer": "4646"
      },
      "geometry": {
        "type": "Point",
        "coordinates": [5.033680006867916, 61.282280018937087]
      }
    },
    {
      "type": "Feature",
      "properties": {
        "navn": "Våge skule",
        "antall_elever": 75,
        "antall_ansatte": 17,
        "laveste_trinn": 1,
        "hoyeste_trinn": 7,
        "eierforhold": "Offentlig",
        "kommunenummer": "4613"
      },
      "geometry": {
        "type": "Point",
        "coordinates": [5.227970003994614, 59.721570023134184]
      }
    },
    {
      "type": "Feature",
      "properties": {
        "navn": "Vøyenenga skole",
        "antall_elever": 341,
        "antall_ansatte": 49,
        "laveste_trinn": 8,
        "hoyeste_trinn": 10,
        "eierforhold": "Offentlig",
        "kommunenummer": "3024"
      },
      "geometry": {
        "type": "Point",
        "coordinates": [10.476829999818769, 59.906959999961153]
      }
    },
    {
      "type": "Feature",
      "properties": {
        "navn": "Værøy skole",
        "antall_elever": 70,
        "antall_ansatte": 36,
        "laveste_trinn": 1,
        "hoyeste_trinn": 10,
        "eierforhold": "Offentlig",
        "kommunenummer": "1857"
      },
      "geometry": {
        "type": "Point",
        "coordinates": [12.693260000792138, 67.663739999799674]
      }
    },
    {
      "type": "Feature",
      "properties": {
        "navn": "Vuku barne- og ungdomsskole",
        "antall_elever": 226,
        "antall_ansatte": 62,
        "laveste_trinn": 1,
        "hoyeste_trinn": 10,
        "eierforhold": "Offentlig",
        "kommunenummer": "5038"
      },
      "geometry": {
        "type": "Point",
        "coordinates": [11.73931000050881, 63.775589999785559]
      }
    },
    {
      "type": "Feature",
      "properties": {
        "navn": "Vossestrand barne- og ungdomsskule",
        "antall_elever": 157,
        "antall_ansatte": 29,
        "laveste_trinn": 1,
        "hoyeste_trinn": 10,
        "eierforhold": "Offentlig",
        "kommunenummer": "4621"
      },
      "geometry": {
        "type": "Point",
        "coordinates": [6.48576000263609, 60.780810006128007]
      }
    },
    {
      "type": "Feature",
      "properties": {
        "navn": "Voss vaksenopplæring",
        "antall_elever": 0,
        "antall_ansatte": 25,
        "laveste_trinn": 0,
        "hoyeste_trinn": 0,
        "eierforhold": "Offentlig",
        "kommunenummer": "4621"
      },
      "geometry": {
        "type": "Point",
        "coordinates": [6.410740002453068, 60.62829000695875]
      }
    },
    {
      "type": "Feature",
      "properties": {
        "navn": "Voss ungdomsskule",
        "antall_elever": 466,
        "antall_ansatte": 111,
        "laveste_trinn": 8,
        "hoyeste_trinn": 10,
        "eierforhold": "Offentlig",
        "kommunenummer": "4621"
      },
      "geometry": {
        "type": "Point",
        "coordinates": [6.420110002727153, 60.6267400069041]
      }
    },
    {
      "type": "Feature",
      "properties": {
        "navn": "Vormsund ungdomsskole",
        "antall_elever": 337,
        "antall_ansatte": 67,
        "laveste_trinn": 8,
        "hoyeste_trinn": 10,
        "eierforhold": "Offentlig",
        "kommunenummer": "3034"
      },
      "geometry": {
        "type": "Point",
        "coordinates": [11.427589999820796, 60.158930000116918]
      }
    },
    {
      "type": "Feature",
      "properties": {
        "navn": "Vormedal ungdomsskole",
        "antall_elever": 366,
        "antall_ansatte": 57,
        "laveste_trinn": 8,
        "hoyeste_trinn": 10,
        "eierforhold": "Offentlig",
        "kommunenummer": "1149"
      },
      "geometry": {
        "type": "Point",
        "coordinates": [5.324730002620028, 59.358350023118113]
      }
    },
    {
      "type": "Feature",
      "properties": {
        "navn": "Volsdalen skole",
        "antall_elever": 261,
        "antall_ansatte": 44,
        "laveste_trinn": 1,
        "hoyeste_trinn": 7,
        "eierforhold": "Offentlig",
        "kommunenummer": "1507"
      },
      "geometry": {
        "type": "Point",
        "coordinates": [6.190220002893648, 62.471280004847351]
      }
    },
    {
      "type": "Feature",
      "properties": {
        "navn": "Vollen ungdomsskole",
        "antall_elever": 289,
        "antall_ansatte": 67,
        "laveste_trinn": 8,
        "hoyeste_trinn": 10,
        "eierforhold": "Offentlig",
        "kommunenummer": "3025"
      },
      "geometry": {
        "type": "Point",
        "coordinates": [10.489649999739832, 59.800710000343962]
      }
    },
    {
      "type": "Feature",
      "properties": {
        "navn": "Vollebekk skole",
        "antall_elever": 573,
        "antall_ansatte": 189,
        "laveste_trinn": 1,
        "hoyeste_trinn": 10,
        "eierforhold": "Offentlig",
        "kommunenummer": "0301"
      },
      "geometry": {
        "type": "Point",
        "coordinates": [10.826259999195891, 59.937229999578143]
      }
    },
    {
      "type": "Feature",
      "properties": {
        "navn": "Vollan skole",
        "antall_elever": 32,
        "antall_ansatte": 23,
        "laveste_trinn": 1,
        "hoyeste_trinn": 10,
        "eierforhold": "Privat",
        "kommunenummer": "5021"
      },
      "geometry": {
        "type": "Point",
        "coordinates": [9.63437999990278, 62.575509999865751]
      }
    },
    {
      "type": "Feature",
      "properties": {
        "navn": "Volla skole",
        "antall_elever": 452,
        "antall_ansatte": 111,
        "laveste_trinn": 1,
        "hoyeste_trinn": 7,
        "eierforhold": "Offentlig",
        "kommunenummer": "3030"
      },
      "geometry": {
        "type": "Point",
        "coordinates": [11.040809999884708, 59.958499999702362]
      }
    },
    {
      "type": "Feature",
      "properties": {
        "navn": "Voll skole AS",
        "antall_elever": 45,
        "antall_ansatte": 21,
        "laveste_trinn": 1,
        "hoyeste_trinn": 10,
        "eierforhold": "Privat",
        "kommunenummer": "5022"
      },
      "geometry": {
        "type": "Point",
        "coordinates": [9.837760000315997, 62.876480000401422]
      }
    },
    {
      "type": "Feature",
      "properties": {
        "navn": "Voldsløkka skole",
        "antall_elever": 0,
        "antall_ansatte": 2,
        "laveste_trinn": 0,
        "hoyeste_trinn": 0,
        "eierforhold": "Offentlig",
        "kommunenummer": "0301"
      },
      "geometry": {
        "type": "Point",
        "coordinates": [10.749780000271612, 59.943009999813306]
      }
    },
    {
      "type": "Feature",
      "properties": {
        "navn": "Volden skole",
        "antall_elever": 150,
        "antall_ansatte": 24,
        "laveste_trinn": 1,
        "hoyeste_trinn": 7,
        "eierforhold": "Offentlig",
        "kommunenummer": "3803"
      },
      "geometry": {
        "type": "Point",
        "coordinates": [10.494619999312521, 59.31304999967827]
      }
    },
    {
      "type": "Feature",
      "properties": {
        "navn": "Volda ungdomsskule",
        "antall_elever": 311,
        "antall_ansatte": 79,
        "laveste_trinn": 8,
        "hoyeste_trinn": 10,
        "eierforhold": "Offentlig",
        "kommunenummer": "1577"
      },
      "geometry": {
        "type": "Point",
        "coordinates": [6.07934000288566, 62.146140006291652]
      }
    },
    {
      "type": "Feature",
      "properties": {
        "navn": "Voksenopplæringen for Øvre Romerike",
        "antall_elever": 0,
        "antall_ansatte": 57,
        "laveste_trinn": 0,
        "hoyeste_trinn": 0,
        "eierforhold": "Offentlig",
        "kommunenummer": "3033"
      },
      "geometry": {
        "type": "Point",
        "coordinates": [11.177580000233982, 60.140330000290774]
      }
    },
    {
      "type": "Feature",
      "properties": {
        "navn": "Voksenopplæring Kongsgård",
        "antall_elever": 0,
        "antall_ansatte": 140,
        "laveste_trinn": 0,
        "hoyeste_trinn": 0,
        "eierforhold": "Offentlig",
        "kommunenummer": "4204"
      },
      "geometry": {
        "type": "Point",
        "coordinates": [8.017440000040786, 58.156110002087544]
      }
    },
    {
      "type": "Feature",
      "properties": {
        "navn": "Voksenopplæring for Lunner og Gran",
        "antall_elever": 103,
        "antall_ansatte": 33,
        "laveste_trinn": 0,
        "hoyeste_trinn": 0,
        "eierforhold": "Offentlig",
        "kommunenummer": "3054"
      },
      "geometry": {
        "type": "Point",
        "coordinates": [10.614529999537949, 60.292030000212833]
      }
    },
    {
      "type": "Feature",
      "properties": {
        "navn": "Fevik skole",
        "antall_elever": 651,
        "antall_ansatte": 88,
        "laveste_trinn": 1,
        "hoyeste_trinn": 10,
        "eierforhold": "Offentlig",
        "kommunenummer": "4202"
      },
      "geometry": {
        "type": "Point",
        "coordinates": [8.679270000448049, 58.381560000652556]
      }
    },
    {
      "type": "Feature",
      "properties": {
        "navn": "Voksen skole",
        "antall_elever": 527,
        "antall_ansatte": 138,
        "laveste_trinn": 1,
        "hoyeste_trinn": 7,
        "eierforhold": "Offentlig",
        "kommunenummer": "0301"
      },
      "geometry": {
        "type": "Point",
        "coordinates": [10.652839999250169, 59.954480000350195]
      }
    },
    {
      "type": "Feature",
      "properties": {
        "navn": "Voiebyen skole",
        "antall_elever": 326,
        "antall_ansatte": 71,
        "laveste_trinn": 1,
        "hoyeste_trinn": 7,
        "eierforhold": "Offentlig",
        "kommunenummer": "4204"
      },
      "geometry": {
        "type": "Point",
        "coordinates": [7.949029999723994, 58.100690002103278]
      }
    },
    {
      "type": "Feature",
      "properties": {
        "navn": "Vistdal skole",
        "antall_elever": 17,
        "antall_ansatte": 13,
        "laveste_trinn": 1,
        "hoyeste_trinn": 7,
        "eierforhold": "Offentlig",
        "kommunenummer": "1506"
      },
      "geometry": {
        "type": "Point",
        "coordinates": [7.92842000027922, 62.720760000380849]
      }
    },
    {
      "type": "Feature",
      "properties": {
        "navn": "Virik skole",
        "antall_elever": 320,
        "antall_ansatte": 47,
        "laveste_trinn": 1,
        "hoyeste_trinn": 7,
        "eierforhold": "Offentlig",
        "kommunenummer": "3804"
      },
      "geometry": {
        "type": "Point",
        "coordinates": [10.204239999578958, 59.125519999806258]
      }
    },
    {
      "type": "Feature",
      "properties": {
        "navn": "Vinstra ungdomsskole",
        "antall_elever": 182,
        "antall_ansatte": 43,
        "laveste_trinn": 8,
        "hoyeste_trinn": 10,
        "eierforhold": "Offentlig",
        "kommunenummer": "3436"
      },
      "geometry": {
        "type": "Point",
        "coordinates": [9.761450000539996, 61.592149999907164]
      }
    },
    {
      "type": "Feature",
      "properties": {
        "navn": "Vinnes friskule",
        "antall_elever": 28,
        "antall_ansatte": 15,
        "laveste_trinn": 1,
        "hoyeste_trinn": 7,
        "eierforhold": "Privat",
        "kommunenummer": "4624"
      },
      "geometry": {
        "type": "Point",
        "coordinates": [5.586360004104722, 60.153040015874971]
      }
    },
    {
      "type": "Feature",
      "properties": {
        "navn": "Vinne skole",
        "antall_elever": 212,
        "antall_ansatte": 52,
        "laveste_trinn": 1,
        "hoyeste_trinn": 7,
        "eierforhold": "Offentlig",
        "kommunenummer": "5038"
      },
      "geometry": {
        "type": "Point",
        "coordinates": [11.489560000472556, 63.773470000208945]
      }
    },
    {
      "type": "Feature",
      "properties": {
        "navn": "Vinjeøra skole",
        "antall_elever": 35,
        "antall_ansatte": 13,
        "laveste_trinn": 1,
        "hoyeste_trinn": 7,
        "eierforhold": "Offentlig",
        "kommunenummer": "5055"
      },
      "geometry": {
        "type": "Point",
        "coordinates": [8.984870000633057, 63.204890000403331]
      }
    },
    {
      "type": "Feature",
      "properties": {
        "navn": "Vinjar skule",
        "antall_elever": 96,
        "antall_ansatte": 37,
        "laveste_trinn": 1,
        "hoyeste_trinn": 7,
        "eierforhold": "Offentlig",
        "kommunenummer": "1134"
      },
      "geometry": {
        "type": "Point",
        "coordinates": [6.49681000132532, 59.488920008229094]
      }
    },
    {
      "type": "Feature",
      "properties": {
        "navn": "Vingrom skole",
        "antall_elever": 121,
        "antall_ansatte": 23,
        "laveste_trinn": 1,
        "hoyeste_trinn": 7,
        "eierforhold": "Offentlig",
        "kommunenummer": "3405"
      },
      "geometry": {
        "type": "Point",
        "coordinates": [10.432629999360675, 61.048269999805512]
      }
    },
    {
      "type": "Feature",
      "properties": {
        "navn": "Vingelen skole",
        "antall_elever": 52,
        "antall_ansatte": 13,
        "laveste_trinn": 1,
        "hoyeste_trinn": 7,
        "eierforhold": "Offentlig",
        "kommunenummer": "3426"
      },
      "geometry": {
        "type": "Point",
        "coordinates": [10.864516439035022, 62.459260051189347]
      }
    },
    {
      "type": "Feature",
      "properties": {
        "navn": "Vingar skole",
        "antall_elever": 149,
        "antall_ansatte": 30,
        "laveste_trinn": 1,
        "hoyeste_trinn": 7,
        "eierforhold": "Offentlig",
        "kommunenummer": "3405"
      },
      "geometry": {
        "type": "Point",
        "coordinates": [10.427930000566491, 61.10812999990376]
      }
    },
    {
      "type": "Feature",
      "properties": {
        "navn": "Vindingstad skole",
        "antall_elever": 281,
        "antall_ansatte": 68,
        "laveste_trinn": 1,
        "hoyeste_trinn": 7,
        "eierforhold": "Offentlig",
        "kommunenummer": "3407"
      },
      "geometry": {
        "type": "Point",
        "coordinates": [10.698610000769175, 60.773609999756829]
      }
    },
    {
      "type": "Feature",
      "properties": {
        "navn": "Vinderen skole",
        "antall_elever": 464,
        "antall_ansatte": 74,
        "laveste_trinn": 1,
        "hoyeste_trinn": 7,
        "eierforhold": "Offentlig",
        "kommunenummer": "0301"
      },
      "geometry": {
        "type": "Point",
        "coordinates": [10.706240000662605, 59.941550000452921]
      }
    },
    {
      "type": "Feature",
      "properties": {
        "navn": "Vilberg ungdomsskole",
        "antall_elever": 380,
        "antall_ansatte": 89,
        "laveste_trinn": 8,
        "hoyeste_trinn": 10,
        "eierforhold": "Offentlig",
        "kommunenummer": "3035"
      },
      "geometry": {
        "type": "Point",
        "coordinates": [11.259740000828115, 60.334749999714951]
      }
    },
    {
      "type": "Feature",
      "properties": {
        "navn": "Vilberg skole",
        "antall_elever": 366,
        "antall_ansatte": 69,
        "laveste_trinn": 1,
        "hoyeste_trinn": 7,
        "eierforhold": "Offentlig",
        "kommunenummer": "3035"
      },
      "geometry": {
        "type": "Point",
        "coordinates": [11.261480000198915, 60.332159999734735]
      }
    },
    {
      "type": "Feature",
      "properties": {
        "navn": "Vilberg skole",
        "antall_elever": 114,
        "antall_ansatte": 28,
        "laveste_trinn": 1,
        "hoyeste_trinn": 7,
        "eierforhold": "Offentlig",
        "kommunenummer": "3442"
      },
      "geometry": {
        "type": "Point",
        "coordinates": [10.830199999353569, 60.648900000423353]
      }
    },
    {
      "type": "Feature",
      "properties": {
        "navn": "Vikåsen skole",
        "antall_elever": 323,
        "antall_ansatte": 72,
        "laveste_trinn": 1,
        "hoyeste_trinn": 7,
        "eierforhold": "Offentlig",
        "kommunenummer": "5001"
      },
      "geometry": {
        "type": "Point",
        "coordinates": [10.534660000479233, 63.412899999769884]
      }
    },
    {
      "type": "Feature",
      "properties": {
        "navn": "Vikten skole",
        "antall_elever": 30,
        "antall_ansatte": 21,
        "laveste_trinn": 1,
        "hoyeste_trinn": 10,
        "eierforhold": "Privat",
        "kommunenummer": "1859"
      },
      "geometry": {
        "type": "Point",
        "coordinates": [13.312699999361827, 68.138729999572135]
      }
    },
    {
      "type": "Feature",
      "properties": {
        "navn": "Vikstranda skole",
        "antall_elever": 94,
        "antall_ansatte": 22,
        "laveste_trinn": 1,
        "hoyeste_trinn": 10,
        "eierforhold": "Offentlig",
        "kommunenummer": "5421"
      },
      "geometry": {
        "type": "Point",
        "coordinates": [17.751590000930708, 69.172230000314812]
      }
    },
    {
      "type": "Feature",
      "properties": {
        "navn": "Vikse skule",
        "antall_elever": 146,
        "antall_ansatte": 37,
        "laveste_trinn": 1,
        "hoyeste_trinn": 7,
        "eierforhold": "Offentlig",
        "kommunenummer": "4612"
      },
      "geometry": {
        "type": "Point",
        "coordinates": [5.301090002707934, 59.499050023059667]
      }
    },
    {
      "type": "Feature",
      "properties": {
        "navn": "Vikran skole",
        "antall_elever": 23,
        "antall_ansatte": 7,
        "laveste_trinn": 1,
        "hoyeste_trinn": 7,
        "eierforhold": "Offentlig",
        "kommunenummer": "5401"
      },
      "geometry": {
        "type": "Point",
        "coordinates": [18.779859999070531, 69.542700000445052]
      }
    },
    {
      "type": "Feature",
      "properties": {
        "navn": "Vikhammeråsen grendaskole",
        "antall_elever": 58,
        "antall_ansatte": 14,
        "laveste_trinn": 1,
        "hoyeste_trinn": 4,
        "eierforhold": "Offentlig",
        "kommunenummer": "5031"
      },
      "geometry": {
        "type": "Point",
        "coordinates": [10.637100000412438, 63.434459999976362]
      }
    },
    {
      "type": "Feature",
      "properties": {
        "navn": "Vikhammer ungdomsskole",
        "antall_elever": 284,
        "antall_ansatte": 61,
        "laveste_trinn": 8,
        "hoyeste_trinn": 10,
        "eierforhold": "Offentlig",
        "kommunenummer": "5031"
      },
      "geometry": {
        "type": "Point",
        "coordinates": [10.635999999708188, 63.437689999561975]
      }
    },
    {
      "type": "Feature",
      "properties": {
        "navn": "Vikhammer skole",
        "antall_elever": 302,
        "antall_ansatte": 62,
        "laveste_trinn": 1,
        "hoyeste_trinn": 7,
        "eierforhold": "Offentlig",
        "kommunenummer": "5031"
      },
      "geometry": {
        "type": "Point",
        "coordinates": [10.636860000220274, 63.438840000195775]
      }
    },
    {
      "type": "Feature",
      "properties": {
        "navn": "Vikevåg skule",
        "antall_elever": 296,
        "antall_ansatte": 43,
        "laveste_trinn": 1,
        "hoyeste_trinn": 7,
        "eierforhold": "Offentlig",
        "kommunenummer": "1103"
      },
      "geometry": {
        "type": "Point",
        "coordinates": [5.698610001831081, 59.103590017454565]
      }
    },
    {
      "type": "Feature",
      "properties": {
        "navn": "Vikeså skule",
        "antall_elever": 299,
        "antall_ansatte": 70,
        "laveste_trinn": 1,
        "hoyeste_trinn": 10,
        "eierforhold": "Offentlig",
        "kommunenummer": "1114"
      },
      "geometry": {
        "type": "Point",
        "coordinates": [6.093150000933453, 58.638290013572266]
      }
    },
    {
      "type": "Feature",
      "properties": {
        "navn": "Vikersund skole",
        "antall_elever": 307,
        "antall_ansatte": 69,
        "laveste_trinn": 1,
        "hoyeste_trinn": 7,
        "eierforhold": "Offentlig",
        "kommunenummer": "3047"
      },
      "geometry": {
        "type": "Point",
        "coordinates": [9.992530000132463, 59.973869999661432]
      }
    },
    {
      "type": "Feature",
      "properties": {
        "navn": "Vikemarka skule",
        "antall_elever": 299,
        "antall_ansatte": 56,
        "laveste_trinn": 1,
        "hoyeste_trinn": 7,
        "eierforhold": "Offentlig",
        "kommunenummer": "1520"
      },
      "geometry": {
        "type": "Point",
        "coordinates": [6.130910003499197, 62.20563000590267]
      }
    },
    {
      "type": "Feature",
      "properties": {
        "navn": "Vikedal skule",
        "antall_elever": 157,
        "antall_ansatte": 36,
        "laveste_trinn": 1,
        "hoyeste_trinn": 10,
        "eierforhold": "Offentlig",
        "kommunenummer": "1160"
      },
      "geometry": {
        "type": "Point",
        "coordinates": [5.90870000188857, 59.497180013609118]
      }
    },
    {
      "type": "Feature",
      "properties": {
        "navn": "Vikebygd skule",
        "antall_elever": 45,
        "antall_ansatte": 16,
        "laveste_trinn": 1,
        "hoyeste_trinn": 7,
        "eierforhold": "Offentlig",
        "kommunenummer": "4618"
      },
      "geometry": {
        "type": "Point",
        "coordinates": [6.572830000777648, 60.259420006538662]
      }
    },
    {
      "type": "Feature",
      "properties": {
        "navn": "Vike montessoriskule SA",
        "antall_elever": 65,
        "antall_ansatte": 20,
        "laveste_trinn": 1,
        "hoyeste_trinn": 7,
        "eierforhold": "Privat",
        "kommunenummer": "1535"
      },
      "geometry": {
        "type": "Point",
        "coordinates": [7.148900001885933, 62.619150002098472]
      }
    },
    {
      "type": "Feature",
      "properties": {
        "navn": "Vik skule",
        "antall_elever": 33,
        "antall_ansatte": 13,
        "laveste_trinn": 1,
        "hoyeste_trinn": 7,
        "eierforhold": "Offentlig",
        "kommunenummer": "1160"
      },
      "geometry": {
        "type": "Point",
        "coordinates": [5.589830002360878, 59.598270017287341]
      }
    },
    {
      "type": "Feature",
      "properties": {
        "navn": "Vik skule",
        "antall_elever": 136,
        "antall_ansatte": 26,
        "laveste_trinn": 1,
        "hoyeste_trinn": 7,
        "eierforhold": "Offentlig",
        "kommunenummer": "1528"
      },
      "geometry": {
        "type": "Point",
        "coordinates": [6.579470001542934, 62.376840003296685]
      }
    },
    {
      "type": "Feature",
      "properties": {
        "navn": "Vik skole",
        "antall_elever": 170,
        "antall_ansatte": 62,
        "laveste_trinn": 5,
        "hoyeste_trinn": 10,
        "eierforhold": "Offentlig",
        "kommunenummer": "1812"
      },
      "geometry": {
        "type": "Point",
        "coordinates": [12.167859998989639, 65.312909999599469]
      }
    },
    {
      "type": "Feature",
      "properties": {
        "navn": "Vik skole",
        "antall_elever": 294,
        "antall_ansatte": 67,
        "laveste_trinn": 1,
        "hoyeste_trinn": 7,
        "eierforhold": "Offentlig",
        "kommunenummer": "3038"
      },
      "geometry": {
        "type": "Point",
        "coordinates": [10.281139999476373, 60.078829999788631]
      }
    },
    {
      "type": "Feature",
      "properties": {
        "navn": "Vik oppvekstsenter",
        "antall_elever": 20,
        "antall_ansatte": 14,
        "laveste_trinn": 1,
        "hoyeste_trinn": 4,
        "eierforhold": "Offentlig",
        "kommunenummer": "5411"
      },
      "geometry": {
        "type": "Point",
        "coordinates": [16.258460000992635, 68.7368699996847]
      }
    },
    {
      "type": "Feature",
      "properties": {
        "navn": "Vigvoll skole",
        "antall_elever": 173,
        "antall_ansatte": 32,
        "laveste_trinn": 8,
        "hoyeste_trinn": 10,
        "eierforhold": "Offentlig",
        "kommunenummer": "4204"
      },
      "geometry": {
        "type": "Point",
        "coordinates": [8.090309999643299, 58.175900001772042]
      }
    },
    {
      "type": "Feature",
      "properties": {
        "navn": "Vigrestad storskule",
        "antall_elever": 278,
        "antall_ansatte": 67,
        "laveste_trinn": 5,
        "hoyeste_trinn": 10,
        "eierforhold": "Offentlig",
        "kommunenummer": "1119"
      },
      "geometry": {
        "type": "Point",
        "coordinates": [5.702540000706706, 58.569920019036637]
      }
    },
    {
      "type": "Feature",
      "properties": {
        "navn": "Vigrestad skule",
        "antall_elever": 185,
        "antall_ansatte": 49,
        "laveste_trinn": 1,
        "hoyeste_trinn": 4,
        "eierforhold": "Offentlig",
        "kommunenummer": "1119"
      },
      "geometry": {
        "type": "Point",
        "coordinates": [5.693310000563915, 58.570140019744734]
      }
    },
    {
      "type": "Feature",
      "properties": {
        "navn": "Vigra skule",
        "antall_elever": 189,
        "antall_ansatte": 41,
        "laveste_trinn": 1,
        "hoyeste_trinn": 7,
        "eierforhold": "Offentlig",
        "kommunenummer": "1532"
      },
      "geometry": {
        "type": "Point",
        "coordinates": [6.115190003531631, 62.57273000491984]
      }
    },
    {
      "type": "Feature",
      "properties": {
        "navn": "Vigmostad skole",
        "antall_elever": 52,
        "antall_ansatte": 20,
        "laveste_trinn": 1,
        "hoyeste_trinn": 7,
        "eierforhold": "Privat",
        "kommunenummer": "4205"
      },
      "geometry": {
        "type": "Point",
        "coordinates": [7.337420000420926, 58.201920004175498]
      }
    },
    {
      "type": "Feature",
      "properties": {
        "navn": "Viggja oppvekstsenter",
        "antall_elever": 70,
        "antall_ansatte": 29,
        "laveste_trinn": 1,
        "hoyeste_trinn": 7,
        "eierforhold": "Offentlig",
        "kommunenummer": "5029"
      },
      "geometry": {
        "type": "Point",
        "coordinates": [9.989979999384241, 63.343110000002667]
      }
    },
    {
      "type": "Feature",
      "properties": {
        "navn": "Vigernes skole",
        "antall_elever": 559,
        "antall_ansatte": 93,
        "laveste_trinn": 1,
        "hoyeste_trinn": 7,
        "eierforhold": "Offentlig",
        "kommunenummer": "3030"
      },
      "geometry": {
        "type": "Point",
        "coordinates": [11.071580000189268, 59.95534999992897]
      }
    },
    {
      "type": "Feature",
      "properties": {
        "navn": "Vigeland ungdomsskole",
        "antall_elever": 210,
        "antall_ansatte": 33,
        "laveste_trinn": 8,
        "hoyeste_trinn": 10,
        "eierforhold": "Offentlig",
        "kommunenummer": "4205"
      },
      "geometry": {
        "type": "Point",
        "coordinates": [7.312060000570414, 58.081120004522951]
      }
    },
    {
      "type": "Feature",
      "properties": {
        "navn": "Vevelstad sentralskole",
        "antall_elever": 40,
        "antall_ansatte": 16,
        "laveste_trinn": 1,
        "hoyeste_trinn": 10,
        "eierforhold": "Offentlig",
        "kommunenummer": "1816"
      },
      "geometry": {
        "type": "Point",
        "coordinates": [12.440849999954242, 65.701309999573922]
      }
    },
    {
      "type": "Feature",
      "properties": {
        "navn": "Vettre skole",
        "antall_elever": 285,
        "antall_ansatte": 53,
        "laveste_trinn": 1,
        "hoyeste_trinn": 7,
        "eierforhold": "Offentlig",
        "kommunenummer": "3025"
      },
      "geometry": {
        "type": "Point",
        "coordinates": [10.469199999679997, 59.82559999973703]
      }
    },
    {
      "type": "Feature",
      "properties": {
        "navn": "Veståsen skole",
        "antall_elever": 302,
        "antall_ansatte": 45,
        "laveste_trinn": 1,
        "hoyeste_trinn": 7,
        "eierforhold": "Offentlig",
        "kommunenummer": "3032"
      },
      "geometry": {
        "type": "Point",
        "coordinates": [10.998810000241539, 60.083270000289616]
      }
    },
    {
      "type": "Feature",
      "properties": {
        "navn": "Vestsiden ungdomsskole",
        "antall_elever": 366,
        "antall_ansatte": 68,
        "laveste_trinn": 8,
        "hoyeste_trinn": 10,
        "eierforhold": "Offentlig",
        "kommunenummer": "3006"
      },
      "geometry": {
        "type": "Point",
        "coordinates": [9.641519999775419, 59.668739999852889]
      }
    },
    {
      "type": "Feature",
      "properties": {
        "navn": "Vestsiden skole",
        "antall_elever": 431,
        "antall_ansatte": 73,
        "laveste_trinn": 1,
        "hoyeste_trinn": 10,
        "eierforhold": "Offentlig",
        "kommunenummer": "3806"
      },
      "geometry": {
        "type": "Point",
        "coordinates": [9.638229999812216, 59.14602999982619]
      }
    },
    {
      "type": "Feature",
      "properties": {
        "navn": "Vestre Trysil skole",
        "antall_elever": 29,
        "antall_ansatte": 10,
        "laveste_trinn": 1,
        "hoyeste_trinn": 7,
        "eierforhold": "Offentlig",
        "kommunenummer": "3421"
      },
      "geometry": {
        "type": "Point",
        "coordinates": [11.989290000620121, 61.105249999639121]
      }
    },
    {
      "type": "Feature",
      "properties": {
        "navn": "Vestre Toten ungdomsskole",
        "antall_elever": 451,
        "antall_ansatte": 107,
        "laveste_trinn": 8,
        "hoyeste_trinn": 10,
        "eierforhold": "Offentlig",
        "kommunenummer": "3443"
      },
      "geometry": {
        "type": "Point",
        "coordinates": [10.60744000083376, 60.716899999803523]
      }
    },
    {
      "type": "Feature",
      "properties": {
        "navn": "Vestre Slidre skule",
        "antall_elever": 218,
        "antall_ansatte": 55,
        "laveste_trinn": 1,
        "hoyeste_trinn": 10,
        "eierforhold": "Offentlig",
        "kommunenummer": "3452"
      },
      "geometry": {
        "type": "Point",
        "coordinates": [8.983620000455636, 61.087540000478441]
      }
    },
    {
      "type": "Feature",
      "properties": {
        "navn": "Vestre Sandøya skole",
        "antall_elever": 12,
        "antall_ansatte": 4,
        "laveste_trinn": 1,
        "hoyeste_trinn": 4,
        "eierforhold": "Offentlig",
        "kommunenummer": "4213"
      },
      "geometry": {
        "type": "Point",
        "coordinates": [9.051610000127367, 58.590290000392784]
      }
    },
    {
      "type": "Feature",
      "properties": {
        "navn": "Vestmyra skole",
        "antall_elever": 627,
        "antall_ansatte": 142,
        "laveste_trinn": 1,
        "hoyeste_trinn": 10,
        "eierforhold": "Offentlig",
        "kommunenummer": "1841"
      },
      "geometry": {
        "type": "Point",
        "coordinates": [15.376999999292764, 67.264419999879365]
      }
    },
    {
      "type": "Feature",
      "properties": {
        "navn": "Vestgård skole",
        "antall_elever": 190,
        "antall_ansatte": 51,
        "laveste_trinn": 1,
        "hoyeste_trinn": 4,
        "eierforhold": "Offentlig",
        "kommunenummer": "3015"
      },
      "geometry": {
        "type": "Point",
        "coordinates": [11.165120000106768, 59.478490000301555]
      }
    },
    {
      "type": "Feature",
      "properties": {
        "navn": "Vestfossen ungdomsskole",
        "antall_elever": 295,
        "antall_ansatte": 37,
        "laveste_trinn": 8,
        "hoyeste_trinn": 10,
        "eierforhold": "Offentlig",
        "kommunenummer": "3048"
      },
      "geometry": {
        "type": "Point",
        "coordinates": [9.865938034328071, 59.730086916498827]
      }
    },
    {
      "type": "Feature",
      "properties": {
        "navn": "Vestfossen barneskole",
        "antall_elever": 335,
        "antall_ansatte": 72,
        "laveste_trinn": 1,
        "hoyeste_trinn": 7,
        "eierforhold": "Offentlig",
        "kommunenummer": "3048"
      },
      "geometry": {
        "type": "Point",
        "coordinates": [9.869109999837217, 59.730069999797266]
      }
    },
    {
      "type": "Feature",
      "properties": {
        "navn": "Vesterøy skole",
        "antall_elever": 127,
        "antall_ansatte": 26,
        "laveste_trinn": 1,
        "hoyeste_trinn": 7,
        "eierforhold": "Offentlig",
        "kommunenummer": "3804"
      },
      "geometry": {
        "type": "Point",
        "coordinates": [10.261379999843921, 59.095009999959828]
      }
    },
    {
      "type": "Feature",
      "properties": {
        "navn": "Vesterskaun skole",
        "antall_elever": 228,
        "antall_ansatte": 39,
        "laveste_trinn": 1,
        "hoyeste_trinn": 7,
        "eierforhold": "Offentlig",
        "kommunenummer": "3030"
      },
      "geometry": {
        "type": "Point",
        "coordinates": [11.165259999316588, 60.021609999928614]
      }
    },
    {
      "type": "Feature",
      "properties": {
        "navn": "Vestbygda ungdomsskole",
        "antall_elever": 156,
        "antall_ansatte": 32,
        "laveste_trinn": 8,
        "hoyeste_trinn": 10,
        "eierforhold": "Offentlig",
        "kommunenummer": "3004"
      },
      "geometry": {
        "type": "Point",
        "coordinates": [10.773159999793929, 59.266119999836967]
      }
    },
    {
      "type": "Feature",
      "properties": {
        "navn": "Vestbygda skole",
        "antall_elever": 232,
        "antall_ansatte": 39,
        "laveste_trinn": 1,
        "hoyeste_trinn": 7,
        "eierforhold": "Offentlig",
        "kommunenummer": "3005"
      },
      "geometry": {
        "type": "Point",
        "coordinates": [10.165579999180567, 59.695930000411913]
      }
    },
    {
      "type": "Feature",
      "properties": {
        "navn": "Vestbygd skule",
        "antall_elever": 177,
        "antall_ansatte": 47,
        "laveste_trinn": 1,
        "hoyeste_trinn": 7,
        "eierforhold": "Offentlig",
        "kommunenummer": "4631"
      },
      "geometry": {
        "type": "Point",
        "coordinates": [5.16039000451572, 60.528640021004477]
      }
    },
    {
      "type": "Feature",
      "properties": {
        "navn": "Vestbyen skole",
        "antall_elever": 223,
        "antall_ansatte": 46,
        "laveste_trinn": 1,
        "hoyeste_trinn": 7,
        "eierforhold": "Offentlig",
        "kommunenummer": "5007"
      },
      "geometry": {
        "type": "Point",
        "coordinates": [11.471189999174978, 64.470129999697718]
      }
    },
    {
      "type": "Feature",
      "properties": {
        "navn": "Vestby videregående skole",
        "antall_elever": 6,
        "antall_ansatte": 15,
        "laveste_trinn": 8,
        "hoyeste_trinn": 10,
        "eierforhold": "Offentlig",
        "kommunenummer": "3019"
      },
      "geometry": {
        "type": "Point",
        "coordinates": [10.758940000019466, 59.606749999667905]
      }
    },
    {
      "type": "Feature",
      "properties": {
        "navn": "Vestby ungdomssskole",
        "antall_elever": 395,
        "antall_ansatte": 74,
        "laveste_trinn": 8,
        "hoyeste_trinn": 10,
        "eierforhold": "Offentlig",
        "kommunenummer": "3019"
      },
      "geometry": {
        "type": "Point",
        "coordinates": [10.756549999675961, 59.595870000299101]
      }
    },
    {
      "type": "Feature",
      "properties": {
        "navn": "Vestby skole",
        "antall_elever": 541,
        "antall_ansatte": 112,
        "laveste_trinn": 1,
        "hoyeste_trinn": 7,
        "eierforhold": "Offentlig",
        "kommunenummer": "3019"
      },
      "geometry": {
        "type": "Point",
        "coordinates": [10.757240000487593, 59.596860000070834]
      }
    },
    {
      "type": "Feature",
      "properties": {
        "navn": "Vestad skole",
        "antall_elever": 231,
        "antall_ansatte": 65,
        "laveste_trinn": 1,
        "hoyeste_trinn": 7,
        "eierforhold": "Offentlig",
        "kommunenummer": "3420"
      },
      "geometry": {
        "type": "Point",
        "coordinates": [11.540400000315003, 60.886500000251829]
      }
    },
    {
      "type": "Feature",
      "properties": {
        "navn": "Vesong ungdomsskole",
        "antall_elever": 348,
        "antall_ansatte": 58,
        "laveste_trinn": 8,
        "hoyeste_trinn": 10,
        "eierforhold": "Offentlig",
        "kommunenummer": "3033"
      },
      "geometry": {
        "type": "Point",
        "coordinates": [11.131399999352906, 60.070520000359977]
      }
    },
    {
      "type": "Feature",
      "properties": {
        "navn": "Verket skole",
        "antall_elever": 514,
        "antall_ansatte": 93,
        "laveste_trinn": 1,
        "hoyeste_trinn": 10,
        "eierforhold": "Offentlig",
        "kommunenummer": "3002"
      },
      "geometry": {
        "type": "Point",
        "coordinates": [10.67936999988876, 59.444099999802724]
      }
    },
    {
      "type": "Feature",
      "properties": {
        "navn": "Verdalsøra ungdomsskole",
        "antall_elever": 428,
        "antall_ansatte": 78,
        "laveste_trinn": 8,
        "hoyeste_trinn": 10,
        "eierforhold": "Offentlig",
        "kommunenummer": "5038"
      },
      "geometry": {
        "type": "Point",
        "coordinates": [11.483219999991983, 63.79975999958225]
      }
    },
    {
      "type": "Feature",
      "properties": {
        "navn": "Verdalsøra barneskole",
        "antall_elever": 298,
        "antall_ansatte": 73,
        "laveste_trinn": 1,
        "hoyeste_trinn": 7,
        "eierforhold": "Offentlig",
        "kommunenummer": "5038"
      },
      "geometry": {
        "type": "Point",
        "coordinates": [11.483219999991983, 63.79975999958225]
      }
    },
    {
      "type": "Feature",
      "properties": {
        "navn": "Venstøp skole",
        "antall_elever": 257,
        "antall_ansatte": 45,
        "laveste_trinn": 1,
        "hoyeste_trinn": 7,
        "eierforhold": "Offentlig",
        "kommunenummer": "3807"
      },
      "geometry": {
        "type": "Point",
        "coordinates": [9.572260000016772, 59.247830000293973]
      }
    },
    {
      "type": "Feature",
      "properties": {
        "navn": "Vennesla ungdomsskole",
        "antall_elever": 434,
        "antall_ansatte": 100,
        "laveste_trinn": 8,
        "hoyeste_trinn": 10,
        "eierforhold": "Offentlig",
        "kommunenummer": "4223"
      },
      "geometry": {
        "type": "Point",
        "coordinates": [7.977409999584146, 58.275950002149095]
      }
    },
    {
      "type": "Feature",
      "properties": {
        "navn": "Vennesla skole",
        "antall_elever": 389,
        "antall_ansatte": 118,
        "laveste_trinn": 1,
        "hoyeste_trinn": 7,
        "eierforhold": "Offentlig",
        "kommunenummer": "4223"
      },
      "geometry": {
        "type": "Point",
        "coordinates": [7.971060000348067, 58.275940002573392]
      }
    },
    {
      "type": "Feature",
      "properties": {
        "navn": "Vennerød skole",
        "antall_elever": 137,
        "antall_ansatte": 27,
        "laveste_trinn": 1,
        "hoyeste_trinn": 7,
        "eierforhold": "Offentlig",
        "kommunenummer": "3804"
      },
      "geometry": {
        "type": "Point",
        "coordinates": [10.236739999999386, 59.269000000049161]
      }
    },
    {
      "type": "Feature",
      "properties": {
        "navn": "Vennersberg skole",
        "antall_elever": 362,
        "antall_ansatte": 53,
        "laveste_trinn": 1,
        "hoyeste_trinn": 7,
        "eierforhold": "Offentlig",
        "kommunenummer": "3401"
      },
      "geometry": {
        "type": "Point",
        "coordinates": [12.026269999993518, 60.176089999648603]
      }
    },
    {
      "type": "Feature",
      "properties": {
        "navn": "Venn oppvekstsenter",
        "antall_elever": 123,
        "antall_ansatte": 31,
        "laveste_trinn": 1,
        "hoyeste_trinn": 7,
        "eierforhold": "Offentlig",
        "kommunenummer": "5029"
      },
      "geometry": {
        "type": "Point",
        "coordinates": [10.005483501365903, 63.234307968721481]
      }
    },
    {
      "type": "Feature",
      "properties": {
        "navn": "Venabygd montessoriskole",
        "antall_elever": 40,
        "antall_ansatte": 22,
        "laveste_trinn": 1,
        "hoyeste_trinn": 7,
        "eierforhold": "Privat",
        "kommunenummer": "3439"
      },
      "geometry": {
        "type": "Point",
        "coordinates": [10.049699999195051, 61.593989999750399]
      }
    },
    {
      "type": "Feature",
      "properties": {
        "navn": "Ven skole",
        "antall_elever": 14,
        "antall_ansatte": 6,
        "laveste_trinn": 1,
        "hoyeste_trinn": 7,
        "eierforhold": "Offentlig",
        "kommunenummer": "5055"
      },
      "geometry": {
        "type": "Point",
        "coordinates": [9.276220000681244, 63.351380000486564]
      }
    },
    {
      "type": "Feature",
      "properties": {
        "navn": "Velledalen montessoriskule AS",
        "antall_elever": 69,
        "antall_ansatte": 34,
        "laveste_trinn": 1,
        "hoyeste_trinn": 7,
        "eierforhold": "Privat",
        "kommunenummer": "1528"
      },
      "geometry": {
        "type": "Point",
        "coordinates": [6.645780001584515, 62.291670003728314]
      }
    },
    {
      "type": "Feature",
      "properties": {
        "navn": "Velle skule",
        "antall_elever": 283,
        "antall_ansatte": 65,
        "laveste_trinn": 1,
        "hoyeste_trinn": 7,
        "eierforhold": "Offentlig",
        "kommunenummer": "1520"
      },
      "geometry": {
        "type": "Point",
        "coordinates": [6.12854000331743, 62.195390006129962]
      }
    },
    {
      "type": "Feature",
      "properties": {
        "navn": "Veitvet skole",
        "antall_elever": 626,
        "antall_ansatte": 150,
        "laveste_trinn": 1,
        "hoyeste_trinn": 10,
        "eierforhold": "Offentlig",
        "kommunenummer": "0301"
      },
      "geometry": {
        "type": "Point",
        "coordinates": [10.853869999994192, 59.942050000465443]
      }
    },
    {
      "type": "Feature",
      "properties": {
        "navn": "Veitastrond skule",
        "antall_elever": 13,
        "antall_ansatte": 17,
        "laveste_trinn": 1,
        "hoyeste_trinn": 7,
        "eierforhold": "Offentlig",
        "kommunenummer": "4644"
      },
      "geometry": {
        "type": "Point",
        "coordinates": [7.030630002242067, 61.48349000290078]
      }
    },
    {
      "type": "Feature",
      "properties": {
        "navn": "Veienmarka ungdomsskole",
        "antall_elever": 298,
        "antall_ansatte": 58,
        "laveste_trinn": 8,
        "hoyeste_trinn": 10,
        "eierforhold": "Offentlig",
        "kommunenummer": "3007"
      },
      "geometry": {
        "type": "Point",
        "coordinates": [10.227519999584803, 60.171340000062571]
      }
    },
    {
      "type": "Feature",
      "properties": {
        "navn": "Veien skole",
        "antall_elever": 188,
        "antall_ansatte": 36,
        "laveste_trinn": 1,
        "hoyeste_trinn": 7,
        "eierforhold": "Offentlig",
        "kommunenummer": "3007"
      },
      "geometry": {
        "type": "Point",
        "coordinates": [10.23242000029167, 60.17562000010485]
      }
    },
    {
      "type": "Feature",
      "properties": {
        "navn": "Veiavangen ungdomsskole",
        "antall_elever": 391,
        "antall_ansatte": 68,
        "laveste_trinn": 8,
        "hoyeste_trinn": 10,
        "eierforhold": "Offentlig",
        "kommunenummer": "3005"
      },
      "geometry": {
        "type": "Point",
        "coordinates": [9.998879999650557, 59.747899999898031]
      }
    },
    {
      "type": "Feature",
      "properties": {
        "navn": "Vegårshei skule",
        "antall_elever": 289,
        "antall_ansatte": 69,
        "laveste_trinn": 1,
        "hoyeste_trinn": 10,
        "eierforhold": "Offentlig",
        "kommunenummer": "4212"
      },
      "geometry": {
        "type": "Point",
        "coordinates": [8.860740000756456, 58.752550000610277]
      }
    },
    {
      "type": "Feature",
      "properties": {
        "navn": "Veggli skole",
        "antall_elever": 127,
        "antall_ansatte": 44,
        "laveste_trinn": 1,
        "hoyeste_trinn": 10,
        "eierforhold": "Offentlig",
        "kommunenummer": "3051"
      },
      "geometry": {
        "type": "Point",
        "coordinates": [9.14988999981961, 60.041439999993244]
      }
    },
    {
      "type": "Feature",
      "properties": {
        "navn": "Vega barne- og ungdomsskole",
        "antall_elever": 122,
        "antall_ansatte": 57,
        "laveste_trinn": 1,
        "hoyeste_trinn": 10,
        "eierforhold": "Offentlig",
        "kommunenummer": "1815"
      },
      "geometry": {
        "type": "Point",
        "coordinates": [11.952300000741435, 65.675480000410559]
      }
    },
    {
      "type": "Feature",
      "properties": {
        "navn": "Vefsn voksenopplæring",
        "antall_elever": 0,
        "antall_ansatte": 24,
        "laveste_trinn": 0,
        "hoyeste_trinn": 0,
        "eierforhold": "Offentlig",
        "kommunenummer": "1824"
      },
      "geometry": {
        "type": "Point",
        "coordinates": [13.216299998980809, 65.836630000216374]
      }
    },
    {
      "type": "Feature",
      "properties": {
        "navn": "Veavågen skole",
        "antall_elever": 380,
        "antall_ansatte": 57,
        "laveste_trinn": 1,
        "hoyeste_trinn": 7,
        "eierforhold": "Offentlig",
        "kommunenummer": "1149"
      },
      "geometry": {
        "type": "Point",
        "coordinates": [5.225760003371071, 59.292390024925702]
      }
    },
    {
      "type": "Feature",
      "properties": {
        "navn": "Vear Kombinerte skole",
        "antall_elever": 520,
        "antall_ansatte": 83,
        "laveste_trinn": 1,
        "hoyeste_trinn": 10,
        "eierforhold": "Offentlig",
        "kommunenummer": "3803"
      },
      "geometry": {
        "type": "Point",
        "coordinates": [10.359370000372774, 59.259429999838048]
      }
    },
    {
      "type": "Feature",
      "properties": {
        "navn": "Ve skole",
        "antall_elever": 392,
        "antall_ansatte": 70,
        "laveste_trinn": 1,
        "hoyeste_trinn": 10,
        "eierforhold": "Offentlig",
        "kommunenummer": "4204"
      },
      "geometry": {
        "type": "Point",
        "coordinates": [8.110580000266102, 58.207790001878649]
      }
    },
    {
      "type": "Feature",
      "properties": {
        "navn": "Vaulen skole",
        "antall_elever": 713,
        "antall_ansatte": 91,
        "laveste_trinn": 1,
        "hoyeste_trinn": 7,
        "eierforhold": "Offentlig",
        "kommunenummer": "1103"
      },
      "geometry": {
        "type": "Point",
        "coordinates": [5.732810002355006, 58.930940017857466]
      }
    },
    {
      "type": "Feature",
      "properties": {
        "navn": "Vats skule",
        "antall_elever": 107,
        "antall_ansatte": 31,
        "laveste_trinn": 1,
        "hoyeste_trinn": 7,
        "eierforhold": "Offentlig",
        "kommunenummer": "1160"
      },
      "geometry": {
        "type": "Point",
        "coordinates": [5.731730001882981, 59.49112001608286]
      }
    },
    {
      "type": "Feature",
      "properties": {
        "navn": "Vatnestrøm oppvekstsenter",
        "antall_elever": 14,
        "antall_ansatte": 14,
        "laveste_trinn": 1,
        "hoyeste_trinn": 4,
        "eierforhold": "Offentlig",
        "kommunenummer": "4218"
      },
      "geometry": {
        "type": "Point",
        "coordinates": [8.067500000569574, 58.420040001782674]
      }
    },
    {
      "type": "Feature",
      "properties": {
        "navn": "Vatneli skole",
        "antall_elever": 57,
        "antall_ansatte": 34,
        "laveste_trinn": 1,
        "hoyeste_trinn": 10,
        "eierforhold": "Privat",
        "kommunenummer": "1108"
      },
      "geometry": {
        "type": "Point",
        "coordinates": [5.772350001625924, 58.859200016959917]
      }
    },